fips,county,state,state_code,male,female,median_age,population,female_percentage,lat,long,life_expectancy,mortality_risk,all_poverty,median_hh_income,sq_miles,pct_impoverished,pop_density
1001,Autauga County,Alabama,AL,26874,28326,37.8,55200,51.31521739130434,32.534922932928126,-86.6427301373947,75.66802311,58.37361637,7444.0,54487.0,594.44,0.13485507246376813,92.86050736827939
1011,Bullock County,Alabama,AL,5663,4689,39.6,10352,45.295595054095834,32.10052546439408,-85.71567933028645,73.85905748,56.8315434,2841.0,34278.0,622.81,0.2744397217928903,16.621441531125065
1021,Chilton County,Alabama,AL,21672,22258,38.6,43930,50.666970179831544,32.847867307907556,-86.71879022444824,74.52738607,59.62526007,7960.0,44188.0,692.85,0.18119735943546553,63.40477736883885
1033,Colbert County,Alabama,AL,26075,28420,42.7,54495,52.15157353885678,34.700470938378004,-87.80492780624995,75.07178963,58.77488917,8982.0,46572.0,592.62,0.164822460776218,91.95605953224663
1035,Conecuh County,Alabama,AL,6037,6477,44.8,12514,51.758031005274105,31.429236930250138,-86.99366150725562,74.05050259,56.79679216,3464.0,29758.0,850.16,0.2768099728304299,14.719582196292464
1037,Coosa County,Alabama,AL,5501,5354,46.9,10855,49.32289267618609,32.93624304249333,-86.24766160001144,75.18827303,56.09960741,1801.0,36441.0,650.93,0.16591432519576232,16.676140291582815
1041,Crenshaw County,Alabama,AL,6814,7051,41.5,13865,50.85467003245583,31.73151850368641,-86.31354750864884,74.06851014,60.79583438,2822.0,37374.0,608.84,0.2035340786152182,22.77281387556665
1043,Cullman County,Alabama,AL,40560,41753,40.6,82313,50.72467289492547,34.1319452282297,-86.86757572060472,75.30541456,59.93032541,12133.0,41543.0,734.84,0.14740077509020447,112.01486037776931
1045,Dale County,Alabama,AL,24234,25021,37.5,49255,50.79890366460258,31.43181019122864,-85.61100443496244,76.25515737,56.11707483,9936.0,40523.0,561.15,0.201725713125571,87.77510469571416
1055,Etowah County,Alabama,AL,49651,53288,41.3,102939,51.76658020769582,34.04525667023056,-86.03476332697053,73.85404427,62.71700456,17624.0,40972.0,534.99,0.1712081912589009,192.4129422979869
1061,Geneva County,Alabama,AL,12971,13520,42.4,26491,51.03620097391567,31.09505484802003,-85.83909144612956,75.54368311,57.94025645,5495.0,36976.0,574.41,0.2074289381299309,46.11862606848767
1091,Marengo County,Alabama,AL,9446,10092,42.7,19538,51.65318865799979,32.247665493391004,-87.78953082031431,74.68026646,57.97444536,5003.0,34794.0,976.88,0.25606510390009213,20.00040946687413
1097,Mobile County,Alabama,AL,197928,216731,37.6,414659,52.26728468452391,30.78721220095308,-88.20579885923952,75.12711493,57.60677187,79364.0,45233.0,1229.44,0.1913958216269272,337.27469416970325
1121,Talladega County,Alabama,AL,39156,41409,41.1,80565,51.398249860361204,33.38007938419927,-86.16588537343469,74.28689529,61.02609038,13864.0,40555.0,736.78,0.17208465214423135,109.34743071201716
1123,Tallapoosa County,Alabama,AL,19517,21119,43.7,40636,51.97115857860025,32.862350624195244,-85.79750899281659,75.01084601,58.58536687,8111.0,40169.0,716.52,0.19960133871444039,56.713001730586726
1125,Tuscaloosa County,Alabama,AL,99539,106674,32.7,206213,51.730007322525736,33.289569418404746,-87.52510914909693,75.79956916,57.84486677,34384.0,47483.0,1321.76,0.16674021521436572,156.01395109550901
2013,Aleutians East Borough,Alaska,AK,1989,1436,42.7,3425,41.92700729927007,55.366507119927775,-161.98133032549518,83.72974942,34.70014597,487.0,63991.0,6981.94,0.1421897810218978,0.4905513367344893
2016,Aleutians West Census Area,Alaska,AK,3432,2318,37.6,5750,40.313043478260866,52.797996316266726,-106.60605997099529,83.72974942,34.70014597,438.0,78151.0,4390.28,0.07617391304347826,1.3097114534836047
2020,Anchorage Municipality,Alaska,AK,151144,144968,33.2,296112,48.957151348138545,61.150825295280754,-149.10911748236055,78.68170594,50.69724281,21108.0,83959.0,1704.68,0.0712838385475766,173.70532885937536
2050,Bethel Census Area,Alaska,AK,9381,8659,27.1,18040,47.99889135254989,60.91323080377408,-159.8180173514006,74.28750903,56.44922907,4502.0,46634.0,40570.0,0.24955654101995564,0.4446635444910032
2060,Bristol Bay Borough,Alaska,AK,526,364,41.8,890,40.89887640449438,58.74386360799613,-156.69997745651224,76.69861359999999,53.22591397,100.0,68026.0,503.84,0.11235955056179775,1.7664337885042871
2068,Denali Borough,Alaska,AK,1117,1115,43.1,2232,49.95519713261647,63.67164250515982,-150.01171591832534,74.49551009999999,52.94173837,121.0,72378.0,12751.41,0.05421146953405018,0.17503946622373526
2070,Dillingham Census Area,Alaska,AK,2573,2402,30.3,4975,48.28140703517587,59.79906654221384,-158.2350895429839,75.15414797,54.79024118,965.0,52250.0,18568.78,0.19396984924623115,0.267922825301393
2090,Fairbanks North Star Borough,Alaska,AK,53846,45807,31.1,99653,45.96650376807522,64.80776532872335,-146.56541139175178,79.35482515,49.34262972,8144.0,73427.0,7338.21,0.08172358082546437,13.580014744740202
2100,Haines Borough,Alaska,AK,1335,1183,44.9,2518,46.98173153296268,59.119879251212865,-135.49995278001106,79.64635815,45.58547916,257.0,53471.0,2318.6,0.10206513105639396,1.0860001725178987
2105,Hoonah-Angoon Census Area,Alaska,AK,1095,1037,50.2,2132,48.63977485928706,58.28835669160422,-135.64299333971147,79.89874213,44.37816137,397.0,53884.0,7524.92,0.18621013133208256,0.2833252712321194
2110,Juneau City and Borough,Alaska,AK,16517,15813,38.1,32330,48.91122796164553,58.454630545695714,-134.17394176905708,80.35319968,45.33240004,2334.0,82011.0,2701.93,0.07219300958861738,11.965520942437443
2122,Kenai Peninsula Borough,Alaska,AK,30314,27906,40.8,58220,47.93198213672279,60.26541331965089,-151.56524389617178,78.60870986,49.33087513,6835.0,68501.0,16075.33,0.11739951906561319,3.6216985903244288
2130,Ketchikan Gateway Borough,Alaska,AK,7060,6744,39.6,13804,48.855404230657776,55.58516170571989,-130.92880926517572,78.18707009999999,51.93058577,1245.0,67125.0,4858.41,0.09019124891335845,2.8412587657278823
2150,Kodiak Island Borough,Alaska,AK,7281,6368,33.5,13649,46.65543263242729,57.677042811019994,-153.7805822874154,79.58791343,45.18267505,991.0,74683.0,6549.58,0.07260605172540113,2.0839504212483853
2164,Lake and Peninsula Borough,Alaska,AK,710,665,33.5,1375,48.36363636363637,58.652919033967095,-156.18684615195298,75.15414797,54.79024118,325.0,44310.0,23652.01,0.23636363636363636,0.05813459405775662
2170,Matanuska-Susitna Borough,Alaska,AK,53912,49552,35.0,103464,47.8929869326529,62.31621988849926,-149.57141297916505,78.11399368,51.58192602,9641.0,71793.0,24607.9,0.09318216964354752,4.204503431824739
2180,Nome Census Area,Alaska,AK,5240,4685,28.1,9925,47.20403022670025,64.91109214261573,-164.0272116791401,72.62562232,58.93092071,2337.0,55974.0,22961.76,0.23546599496221662,0.43224038575440216
2185,North Slope Borough,Alaska,AK,6116,3681,34.8,9797,37.57272634479943,69.31214959526797,-153.48104285015563,77.09129264,51.12066488,1132.0,74998.0,88695.41,0.1155455751760743,0.11045667413905634
2188,Northwest Arctic Borough,Alaska,AK,4156,3578,27.2,7734,46.263253167830364,67.05300866513784,-159.7210157747925,74.50751669,53.69943422,2114.0,53692.0,35572.58,0.27333850530126713,0.21741464914830466
2195,Petersburg Borough,Alaska,AK,1649,1606,41.0,3255,49.3394777265745,57.11951010750548,-132.93445731871802,78.18707009999999,51.93058577,265.0,60540.0,3281.98,0.08141321044546851,0.9917793527078166
2198,Prince of Wales-Hyder Census Area,Alaska,AK,3514,2960,41.0,6474,45.7213469261662,55.799727610620955,-133.01919913685245,78.18707009999999,51.93058577,1109.0,48888.0,3922.87,0.17130058696323758,1.6503223405312948
2220,Sitka City and Borough,Alaska,AK,4471,4267,38.8,8738,48.832684824902714,57.24007686401532,-135.31525107951913,79.93667747,46.65492982,690.0,72795.0,2870.34,0.07896543831540398,3.044238661621968
2230,Skagway Municipality,Alaska,AK,555,506,38.5,1061,47.69085768143261,59.562965557566386,-135.33625689690177,79.89874213,44.37816137,48.0,65112.0,452.33,0.04524033930254477,2.3456326133575045
2240,Southeast Fairbanks Census Area,Alaska,AK,3779,3097,36.3,6876,45.04072134962187,63.876324562772396,-143.21181328851824,77.77042926,50.88162033,804.0,59412.0,24768.81,0.1169284467713787,0.2776072003459189
2261,Valdez-Cordova Census Area,Alaska,AK,4898,4403,39.0,9301,47.338995806902474,61.56195511559881,-144.46863096113148,78.00466193,50.42054055,852.0,69755.0,34239.88,0.0916030534351145,0.27164230715761856
2275,Wrangell City and Borough,Alaska,AK,1302,1182,49.5,2484,47.58454106280193,56.331718973625605,-132.02230502679723,78.18707009999999,51.93058577,274.0,56747.0,2541.48,0.11030595813204509,0.9773832569998584
2282,Yakutat City and Borough,Alaska,AK,369,320,36.4,689,46.444121915820034,59.88889522608021,-140.3576872639421,79.89874213,44.37816137,101.0,57687.0,7649.46,0.14658925979680695,0.09007171748071105
2290,Yukon-Koyukuk Census Area,Alaska,AK,2910,2505,35.3,5415,46.26038781163435,65.50864462116017,-151.38963204423877,74.49551009999999,52.94173837,1266.0,37906.0,145504.79,0.2337950138504155,0.037215269682874356
4001,Apache County,Arizona,AZ,35240,36282,34.7,71522,50.728447191074075,35.39552646734953,-109.48882230843971,74.28083521,51.58779328,23966.0,34040.0,11197.52,0.33508570789407455,6.387307189449092
4003,Cochise County,Arizona,AZ,64135,62144,40.6,126279,49.211666231123154,31.879608041942266,-109.75116766140671,78.82568184,48.28649079,25424.0,45151.0,6165.69,0.20133197126996571,20.480919410479608
4005,Coconino County,Arizona,AZ,68918,71299,30.6,140217,50.84904112910703,35.838745977913646,-111.77049137835488,79.39500367,45.33079975,23116.0,53643.0,18618.89,0.1648587546445866,7.5309000697678545
4007,Gila County,Arizona,AZ,26370,27030,49.7,53400,50.617977528089895,33.79975176644272,-110.81171010722186,76.26265371,50.81778202,10678.0,40747.0,4757.93,0.1999625468164794,11.223368145390957
4011,Greenlee County,Arizona,AZ,5064,4440,34.2,9504,46.717171717171716,33.21523492222133,-109.24012820437055,78.25067376,50.7095939,1144.0,61110.0,1843.13,0.12037037037037036,5.156445828563368
4012,La Paz County,Arizona,AZ,10677,10024,56.0,20701,48.422781508139714,33.729243716591746,-113.98132415701498,80.68009173,38.59558108,4976.0,34285.0,4499.63,0.2403748611178204,4.600600493818381
4013,Maricopa County,Arizona,AZ,2104145,2149768,36.1,4253913,50.53624745028871,33.3488159443998,-112.49129136326741,80.05669046,44.31991323,624923.0,58742.0,9200.14,0.14690544917115136,462.3748116876483
4015,Mohave County,Arizona,AZ,104047,102017,50.9,206064,49.507434583430395,35.704095159106224,-113.75795269664282,75.70979169,53.39764915,36665.0,42003.0,13311.08,0.1779301576209333,15.480637183459194
4017,Navajo County,Arizona,AZ,54533,54172,36.4,108705,49.833954279931916,35.39965744024454,-110.32140142426282,75.71379494,50.37809953,30379.0,37440.0,9950.42,0.27946276620210664,10.924664486524186
4019,Pima County,Arizona,AZ,501879,517843,38.3,1019722,50.782762360721854,32.09742729565182,-111.7899048851512,79.4578924,45.19916103,180513.0,47644.0,9187.04,0.1770217765234054,110.9957069959421
4021,Pinal County,Arizona,AZ,219048,200673,38.9,419721,47.81104590906818,32.90439176331561,-111.34467078195728,80.17215444,40.10152532,60679.0,52642.0,5365.61,0.14456984520669683,78.22428391180127
4025,Yavapai County,Arizona,AZ,109795,114850,52.9,224645,51.12510850452937,34.59990365784673,-112.55390468776022,79.02284263,45.72801557,29418.0,49824.0,8123.5,0.1309532818446883,27.653720686896044
5001,Arkansas County,Arkansas,AR,8733,9391,41.4,18124,51.815272566762296,34.29080705580511,-91.37490973290753,74.57059047,60.05462174,3237.0,39726.0,988.77,0.17860295740454646,18.32984414980228
5003,Ashley County,Arkansas,AR,10013,10524,41.7,20537,51.244096021814286,33.191211354727336,-91.7684577361982,74.71536326,59.18675556,3636.0,41277.0,925.35,0.17704630666601742,22.193764521532394
5005,Baxter County,Arkansas,AR,19992,21227,52.1,41219,51.49809553846527,36.287208404293814,-92.33695011949514,76.94078823,52.67309297,5144.0,40147.0,554.28,0.12479681700186807,74.3649419066176
5017,Chicot County,Arkansas,AR,5266,5560,42.7,10826,51.3578422316645,33.267214828807525,-91.29398176784413,73.34736724,60.26711625,3066.0,29527.0,644.3,0.2832070940328838,16.80273164674841
5023,Cleburne County,Arkansas,AR,12472,12758,49.4,25230,50.566785572730886,35.53810443735143,-92.02672750378927,77.42769049,52.28279699,4047.0,42397.0,553.69,0.16040428061831152,45.56701403312322
5029,Conway County,Arkansas,AR,10182,10724,41.7,20906,51.29627858031187,35.262246537380165,-92.70129382838728,76.13151688,55.68726957,3903.0,41892.0,552.25,0.18669281545967664,37.85604345857854
5031,Craighead County,Arkansas,AR,51528,54173,34.1,105701,51.25117075524357,35.830780591727,-90.63283975822227,76.04490344,58.41766649,16548.0,44091.0,707.21,0.15655481026669568,149.4619702775696
5037,Cross County,Arkansas,AR,8200,8798,41.2,16998,51.75903047417343,35.29571521853951,-90.77121408620285,73.87152431,60.83582655,3252.0,40970.0,616.38,0.19131662548535122,27.577143969629127
5041,Desha County,Arkansas,AR,5623,6264,39.1,11887,52.696222764364435,33.833284507105354,-91.25398249476532,73.83194990000001,59.19500937,3125.0,32392.0,768.15,0.2628922352149407,15.474842153225282
5043,Drew County,Arkansas,AR,9033,9469,37.0,18502,51.17825099989191,33.58945379935467,-91.72001113881393,75.68926943,55.8860101,3387.0,40441.0,828.36,0.18306129067127877,22.335699454343523
5045,Faulkner County,Arkansas,AR,59911,62505,32.5,122416,51.05950202587897,35.14698116792315,-92.33204545404496,77.23094383,55.55917583,18782.0,50909.0,647.88,0.15342765651548818,188.9485707229734
5051,Garland County,Arkansas,AR,47182,51114,44.9,98296,52.00008138683161,34.57666777754009,-93.15041074296991,75.65631474,54.53551322,17037.0,42087.0,677.78,0.17332343126882072,145.02640974947624
5057,Hempstead County,Arkansas,AR,10494,11524,39.9,22018,52.338995367426655,33.73532331512718,-93.66847440957208,75.07852467,57.52142097,4483.0,38769.0,727.52,0.2036061404305568,30.264460083571585
5059,Hot Spring County,Arkansas,AR,17418,16102,41.3,33520,48.036992840095465,34.31762873758588,-92.94594016282792,75.6140479,57.65111301,4541.0,46313.0,615.2,0.13547136038186158,54.48634590377113
5063,Independence County,Arkansas,AR,18092,19172,39.4,37264,51.449119793902966,35.7415724849761,-91.56970871240068,75.69194784,57.80155747,5727.0,42520.0,763.95,0.15368720480893086,48.77806139145232
5065,Izard County,Arkansas,AR,7018,6541,48.0,13559,48.2410207242422,36.09487010035818,-91.91340553189517,75.92335293,54.59821836,2492.0,36987.0,580.58,0.18378936499741869,23.35423197492163
5081,Little River County,Arkansas,AR,6090,6327,42.6,12417,50.95433679632762,33.700511447751154,-94.23434658306978,74.98476429,60.46895846,2148.0,43567.0,532.25,0.17298864460014496,23.32926256458431
5085,Lonoke County,Arkansas,AR,35667,36539,36.1,72206,50.603827936736565,34.754256224990016,-91.88867330213915,75.86463348,58.82169032,8881.0,56247.0,770.73,0.12299531894856383,93.685207530523
5103,Ouachita County,Arkansas,AR,11327,12779,42.3,24106,53.01169833236538,33.59335286839969,-92.88194022525765,73.37219813,61.54108127,5849.0,36016.0,732.78,0.24263668796150337,32.896640192144986
5111,Poinsett County,Arkansas,AR,11734,12320,39.7,24054,51.21809262492725,35.574014785872826,-90.66297675416159,72.13829595,65.42163467,5352.0,36125.0,758.39,0.22249937640309303,31.71719036379699
5123,St. Francis County,Arkansas,AR,14441,11853,38.9,26294,45.07872518445272,35.022009561830515,-90.7477657706903,73.57011412,61.39732389,6973.0,39675.0,634.77,0.26519358028447554,41.422877577705314
5129,Searcy County,Arkansas,AR,3981,3942,47.6,7923,49.753881105641796,35.910899572577186,-92.69950814142427,76.27590253,54.38729435,1814.0,29747.0,666.1,0.2289536791619336,11.894610418856027
5131,Sebastian County,Arkansas,AR,62274,65187,37.5,127461,51.142702473697824,35.199660327844946,-94.27417847062952,76.19079573,57.04783739,21232.0,42559.0,531.91,0.16657644299040492,239.6288845857382
5135,Sharp County,Arkansas,AR,8335,8708,47.4,17043,51.09429091122455,36.1611416259315,-91.47985751697682,75.39866716,55.97037253,3610.0,32379.0,604.44,0.21181716833890746,28.19634703196347
5147,Woodruff County,Arkansas,AR,3051,3609,45.6,6660,54.189189189189186,35.186306413089426,-91.24305627869849,73.26080026,61.68043004,1712.0,30400.0,586.79,0.25705705705705706,11.349886671552005
5149,Yell County,Arkansas,AR,10782,10791,39.3,21573,50.02085940759282,35.00261093322689,-93.41123285260817,75.4764002,58.23897966,3817.0,38658.0,929.98,0.17693413062624577,23.19727305963569
6001,Alameda County,California,CA,807171,836529,37.4,1643700,50.89304617630954,37.646893227585394,-121.88886747655657,81.45976533,41.10005699,173386.0,89472.0,739.02,0.10548518586116688,2224.161727693432
6003,Alpine County,California,CA,612,534,44.3,1146,46.596858638743456,38.59719676739881,-119.82066974618066,79.0638122,48.266358000000004,199.0,57481.0,738.33,0.1736474694589878,1.5521514769818372
6005,Amador County,California,CA,20302,17527,50.5,37829,46.332179016098756,38.44639149036272,-120.65109333340908,79.80151061,46.40284661,3846.0,59789.0,594.58,0.10166803246186788,63.62306165696794
6009,Calaveras County,California,CA,22434,22801,52.1,45235,50.40565933458605,38.20459548169672,-120.55412801084057,79.84153933,44.85465332,5833.0,57990.0,1020.01,0.12894882281419254,44.34760443525064
6011,Colusa County,California,CA,11124,10340,35.1,21464,48.1736861721953,39.17748403490378,-122.23695912321348,80.18516192,44.70831411,2375.0,54861.0,1150.73,0.1106503913529631,18.65250753869283
6013,Contra Costa County,California,CA,553701,579546,39.4,1133247,51.14030745283243,37.91912233692718,-121.92778819106958,81.39449781,42.54708096,97573.0,90920.0,715.94,0.08610038235265569,1582.8798502667821
6015,Del Norte County,California,CA,14575,12849,38.6,27424,46.85312135355893,41.743134903278985,-123.89724002308719,76.37627978,55.21382898,5842.0,39458.0,1006.37,0.21302508751458576,27.250414857358624
6017,El Dorado County,California,CA,93040,93621,45.8,186661,50.15562972447378,38.778735497141675,-120.52465737213436,81.06414486,43.24485639,16073.0,75100.0,1707.88,0.08610797113483802,109.2939784996604
6019,Fresno County,California,CA,487936,490194,32.0,978130,50.11542433009928,36.75819763981456,-119.6493072370918,78.76388306,48.17611532,245131.0,48323.0,5957.99,0.250611881856195,164.17113825300143
6021,Glenn County,California,CA,14171,13726,36.6,27897,49.2024231996272,39.59820149120442,-122.39199901384107,78.28644217,50.66356994,4632.0,46141.0,1313.95,0.16603935907086784,21.231401499296016
6025,Imperial County,California,CA,92250,87966,32.4,180216,48.81142628845386,33.03951207342643,-115.3653511508614,80.41937447,42.92320576,40601.0,43327.0,4176.6,0.22529076219647534,43.148972848728626
6027,Inyo County,California,CA,9084,9001,45.7,18085,49.77052806192978,36.511113761044115,-117.41074797719436,78.83049895,48.31354126,2184.0,53350.0,10180.88,0.12076306331213713,1.7763690368612537
6029,Kern County,California,CA,452646,430407,31.5,883053,48.74078905796143,35.342864363470284,-118.72991638751208,77.25980354,53.94952079,190993.0,49812.0,8131.92,0.21628713112349995,108.59096006847092
6035,Lassen County,California,CA,20671,10514,36.0,31185,33.71492704826038,40.673589098637045,-120.59431538478664,78.94176874,49.88121708,4085.0,49793.0,4541.18,0.13099246432579767,6.8671578752658995
6037,Los Angeles County,California,CA,4976788,5121264,36.2,10098052,50.715365696274894,34.3207429592211,-118.22480998416323,81.35807988,40.90116256,1629450.0,61308.0,4057.88,0.16136280542029294,2488.504342168817
6039,Madera County,California,CA,74683,80330,33.9,155013,51.82146013560153,37.21799210274101,-119.76267044541183,79.34930981,46.34658424,30029.0,49467.0,2137.07,0.19371923645113637,72.53529364971666
6041,Marin County,California,CA,127113,133182,46.5,260295,51.16579265832997,38.07338555626221,-122.72341555726419,83.80002265,36.15312416,19932.0,103488.0,520.31,0.0765746556791333,500.2690703618997
6043,Mariposa County,California,CA,8920,8620,51.4,17540,49.1448118586089,37.58150820256936,-119.90542609837362,80.09509905,43.93095163,3077.0,51233.0,1448.82,0.17542759407069555,12.106403832084041
6045,Mendocino County,California,CA,43439,43983,42.8,87422,50.311134497037365,39.44022410166245,-123.3914726207048,78.54100759,48.16176721,16366.0,45247.0,3506.34,0.1872068815629933,24.932550750925465
6047,Merced County,California,CA,135816,133259,30.9,269075,49.52485366533495,37.191889864977696,-120.71765231288776,78.92387559999999,49.08945316,53417.0,47442.0,1934.97,0.19852085849670167,139.05900349876225
6049,Modoc County,California,CA,4613,4325,47.7,8938,48.38890132020586,41.58981656312058,-120.72501563385927,77.50070031,52.15631319,1571.0,42890.0,3917.77,0.17576639069142985,2.281399877991817
6051,Mono County,California,CA,7341,6833,38.3,14174,48.20798645407083,37.93908943424993,-118.88684313219679,82.96174740000001,36.17765342,1583.0,56574.0,3048.98,0.1116833639057429,4.648767784636173
6053,Monterey County,California,CA,220967,212245,34.1,433212,48.99333351800042,36.21715890998017,-121.23920059946272,81.84677223,40.50588643,53898.0,62999.0,3280.6,0.12441483615412316,132.05267329147108
6055,Napa County,California,CA,70082,70448,41.1,140530,50.13022130505942,38.506485447294324,-122.33051811517599,80.49355885,46.66607433,10958.0,73112.0,748.36,0.07797623283284708,187.78395424661926
6057,Nevada County,California,CA,48889,50203,50.1,99092,50.66302022363056,39.301363059753385,-120.76845107342852,81.29504835,41.35897181,10662.0,60501.0,957.77,0.1075969805837,103.46116499785961
6061,Placer County,California,CA,185511,194566,41.9,380077,51.19120599246994,39.063459567996674,-120.71755875765687,81.4637242,43.51221716,27340.0,85326.0,1407.01,0.07193279256571694,270.1309869865886
6063,Plumas County,California,CA,9423,9276,52.2,18699,49.60693085191721,40.004638434438725,-120.83854565296976,78.33346915,50.37979589,2312.0,53646.0,2553.04,0.12364297556019038,7.324209569767806
6065,Riverside County,California,CA,1186188,1197098,35.3,2383286,50.228885664582435,33.74366319247109,-115.99380653350666,80.21369372,44.13759989,359774.0,59951.0,7206.48,0.1509571239037195,330.71430157302876
6067,Sacramento County,California,CA,737742,772281,36.0,1510023,51.143658076731285,38.449316848852774,-121.34425336568763,79.11699482,48.09518102,243760.0,59728.0,964.64,0.16142800473900065,1565.374647536905
6069,San Benito County,California,CA,29626,29790,35.5,59416,50.138009963646155,36.60569063230486,-121.0749692523152,81.76589581,41.42256243,6206.0,73298.0,1388.71,0.10444997980341995,42.7850307119557
6071,San Bernardino County,California,CA,1062472,1072941,33.1,2135413,50.245128225781144,34.84139921238718,-116.17840998570631,78.65355011,50.3359131,369012.0,56194.0,20056.94,0.17280591623259764,106.46753692238198
6073,San Diego County,California,CA,1661931,1640902,35.6,3302833,49.681652084740584,33.034136709370166,-116.73529293376949,81.42787948,41.95507335,400028.0,70693.0,4206.63,0.12111662926947865,785.1493951215106
6075,San Francisco County,California,CA,443970,426074,38.2,870044,48.9715462666256,37.756164368655135,-122.44304167780714,81.96848615,35.40648698,87690.0,101873.0,46.87,0.10078800612382822,18562.91871132921
6077,San Joaquin County,California,CA,364612,367600,34.1,732212,50.20403926731603,37.93475478900825,-121.27139238365105,78.10445402,50.30125487,105268.0,59038.0,1391.32,0.1437671057016274,526.2714544461375
6079,San Luis Obispo County,California,CA,142769,138686,39.1,281455,49.274662024124645,35.38708293547382,-120.40451599116749,81.37256158,42.38558439,29345.0,69517.0,3298.57,0.10426178252296105,85.32636869916357
6081,San Mateo County,California,CA,377851,388084,39.6,765935,50.668007076318496,37.422897430599754,-122.32901654128041,83.11294121,37.64616704,50438.0,107075.0,448.41,0.06585154092710217,1708.113110769162
6083,Santa Barbara County,California,CA,222208,221530,33.7,443738,49.92360356787113,34.672879885387175,-120.01647340776172,81.65392829,41.55901438,59468.0,66360.0,2735.09,0.1340160184613443,162.23890255896515
6085,Santa Clara County,California,CA,970469,951731,37.0,1922200,49.51258974092186,37.23178502981293,-121.69512630659516,83.13961024,37.91245612,175627.0,110843.0,1290.1,0.09136770367287483,1489.9620184481823
6087,Santa Cruz County,California,CA,135727,138038,37.4,273765,50.42207732909613,37.0561884879364,-122.00184962661213,81.36632656,43.00360488,35339.0,75929.0,445.17,0.12908516428323563,614.9673158568636
6089,Shasta County,California,CA,87859,91226,41.8,179085,50.94005639779993,40.763713268106386,-122.04049900154385,76.68418018,54.95364374,30359.0,46663.0,3775.4,0.16952285227685177,47.434708905016684
6093,Siskiyou County,California,CA,21706,21834,48.0,43540,50.14699127239321,41.592675402058475,-122.5403512604914,77.65546325,50.92547418,8109.0,40875.0,6277.89,0.18624253559944878,6.935451242376021
6095,Solano County,California,CA,217931,220599,37.9,438530,50.30419811643445,38.26997290684727,-121.93285185686705,79.65057096,47.44835748,48701.0,73200.0,821.77,0.11105511595557886,533.6407997371527
6097,Sonoma County,California,CA,245196,256121,41.7,501317,51.08962991480441,38.52828658778606,-122.88740786017405,81.09476535,43.3413019,46604.0,73496.0,1575.85,0.09296313510214096,318.12482152489133
6099,Stanislaus County,California,CA,266844,272457,34.0,539301,50.52039584573365,37.559134084648015,-120.99768806978115,78.25066562,51.15615729,77913.0,54060.0,1494.83,0.144470342165136,360.7774797134122
6101,Sutter County,California,CA,47789,48083,35.7,95872,50.153329439252346,39.03457772739615,-121.6948438167805,78.98803939,49.77549317,16390.0,51283.0,602.41,0.17095710947930573,159.1474245115453
6103,Tehama County,California,CA,31504,31869,40.9,63373,50.28797752986287,40.12562627265812,-122.2340586020686,77.74387965,51.50173462,13060.0,40585.0,2949.71,0.20608145424707683,21.484484915466265
6107,Tulare County,California,CA,230255,230222,30.8,460477,49.99641675914324,36.220165516077145,-118.80048756434681,78.29661869,49.61073208,112387.0,45768.0,4824.22,0.24406647889036803,95.45107810174494
6109,Tuolumne County,California,CA,28102,25830,48.4,53932,47.89364384780836,38.027588914238436,-119.95475499078795,79.2774625,46.77143839,7781.0,50431.0,2220.88,0.1442742713046058,24.284067576816398
6111,Ventura County,California,CA,419588,428524,37.9,848112,50.52681721282095,34.45650805886403,-119.08363317379286,81.70825701,42.48906464,81792.0,79470.0,1843.13,0.0964400928179297,460.147683560031
6113,Yolo County,California,CA,104375,110602,31.0,214977,51.448294468710614,38.68661923435762,-121.9015698149292,80.54803351,45.49430714,39303.0,63645.0,1014.69,0.18282420910143876,211.8647074475948
6115,Yuba County,California,CA,38468,37025,32.5,75493,49.044282251334565,39.26900718329727,-121.3512642631278,76.11979345,56.4979017,12288.0,46054.0,631.84,0.16277005815108686,119.48119777158774
8003,Alamosa County,Colorado,CO,8242,8202,30.4,16444,49.87837509121868,37.5729353487017,-105.78836680671556,77.42863223,52.58935151,3816.0,37057.0,722.64,0.23206032595475554,22.755452230709622
8005,Arapahoe County,Colorado,CO,314672,321999,36.5,636671,50.575414931730826,39.649756848133705,-104.3392298417685,80.01678824,47.11324256,56898.0,70866.0,798.1,0.0893679781237091,797.7333667460218
8007,Archuleta County,Colorado,CO,6546,6362,50.6,12908,49.287263712426395,37.19353673333712,-107.04828747952928,82.08486667,37.13580731,1523.0,51998.0,1350.18,0.11798884412767276,9.560206787243182
8009,Baca County,Colorado,CO,1755,1808,47.7,3563,50.74375526241931,37.31919022603764,-102.56037464026166,77.9534843,49.05065637,702.0,34070.0,2554.97,0.19702497895032275,1.3945369221556418
8011,Bent County,Colorado,CO,3790,2019,41.0,5809,34.756412463418826,37.955075948238985,-103.07170965074052,76.78118238,52.73624907,1358.0,33951.0,1512.86,0.2337751764503357,3.8397472337162726
8013,Boulder County,Colorado,CO,161355,159675,36.2,321030,49.73834221100832,40.092488552325314,-105.35772961262155,80.01678824,47.11324256,33749.0,74772.0,726.29,0.1051272466747656,442.0135207699404
8014,Broomfield County,Colorado,CO,32789,33331,37.7,66120,50.40986085904417,39.954105918210956,-105.05271057431746,80.01678824,47.11324256,3518.0,86870.0,33.03,0.05320629159104658,2001.8165304268846
8015,Chaffee County,Colorado,CO,10268,8896,49.1,19164,46.42037152995199,38.74701250608263,-106.19412663972601,81.21888578,41.78434635,2009.0,49877.0,1013.4,0.10483197662283449,18.91059798697454
8019,Clear Creek County,Colorado,CO,4816,4563,47.8,9379,48.651242136688346,39.6891797331411,-105.64440226875996,81.62735139,40.21565292,753.0,68699.0,395.23,0.08028574474890714,23.730486046099738
8021,Conejos County,Colorado,CO,4082,4060,39.4,8142,49.864898059444855,37.200712643418115,-106.1916103166688,78.10789475,49.520445200000005,1836.0,34390.0,1287.39,0.22549742078113486,6.324423834269335
8023,Costilla County,Colorado,CO,1941,1746,51.3,3687,47.35557363710335,37.27812432039779,-105.42823538375185,77.71591643,48.31251319,1128.0,27211.0,1226.95,0.305939788445891,3.0050124291943434
8025,Crowley County,Colorado,CO,3526,2104,35.6,5630,37.371225577264646,38.32658632505793,-103.7844708388175,77.93659391,52.68396296,1471.0,35873.0,787.42,0.26127886323268207,7.149932691575017
8031,Denver County,Colorado,CO,347188,346229,34.4,693417,49.93084969073443,39.762132121547154,-104.87586982840837,80.01678824,47.11324256,95232.0,61038.0,153.0,0.13733727324250775,4532.137254901961
8033,Dolores County,Colorado,CO,989,852,51.8,1841,46.27919608908202,37.75171175752354,-108.51740031607224,79.50202945,45.02473075,271.0,46791.0,1067.05,0.14720260727865292,1.725317464036362
8037,Eagle County,Colorado,CO,28804,25553,36.5,54357,47.00958478208879,39.627845562932045,-106.69536644502287,85.94067055,26.86494792,4239.0,79556.0,1684.53,0.07798443622716486,32.26834784776763
8047,Gilpin County,Colorado,CO,3169,2755,45.7,5924,46.50573936529372,39.857562102552684,-105.5225160966723,80.78618227,43.31224008,440.0,65472.0,149.9,0.07427413909520594,39.51967978652435
8051,Gunnison County,Colorado,CO,8983,7554,34.5,16537,45.67938562012457,38.666765447186044,-107.03162238964329,81.94293325,40.71643559,2128.0,53753.0,3239.1,0.1286811392634698,5.105430520823686
8053,Hinsdale County,Colorado,CO,406,472,57.5,878,53.758542141230066,37.821284803314846,-107.3003019088267,83.66023442,32.15317942,77.0,51717.0,1117.25,0.08769931662870159,0.7858581338106959
8055,Huerfano County,Colorado,CO,3305,3278,55.1,6583,49.79492632538357,37.68467850964496,-104.96061132482522,77.40792926,51.65836503,1425.0,34626.0,1591.0,0.21646665653957162,4.137649277184161
8063,Kit Carson County,Colorado,CO,4158,3477,38.5,7635,45.540275049115905,39.3054943524409,-102.60294572338049,79.5153185,47.07866514,1023.0,48272.0,2160.82,0.13398821218074655,3.5333808461602536
8067,La Plata County,Colorado,CO,27790,27311,39.9,55101,49.565343641676186,37.28655413856314,-107.84332957991036,81.57236337,41.41496219,5861.0,58499.0,1692.08,0.10636830547539972,32.56406316486218
8069,Larimer County,Colorado,CO,168615,169546,35.9,338161,50.13765632346722,40.666386174603154,-105.46114554482624,81.71930089,42.92376909,37023.0,66561.0,2596.0,0.10948335260423289,130.26232665639446
8071,Las Animas County,Colorado,CO,7452,6727,46.1,14179,47.44340221454264,37.315788556131565,-104.03864231253098,77.64617959,49.68136209,2869.0,38224.0,4772.67,0.20234149093730164,2.970873745723044
8077,Mesa County,Colorado,CO,74027,75971,39.1,149998,50.648008640115215,39.01830152379928,-108.46644236398792,78.7734301,49.09739714,21922.0,49825.0,3328.97,0.14614861531487086,45.05838142128046
8081,Moffat County,Colorado,CO,6698,6362,37.8,13060,48.71362940275651,40.618394730561846,-108.20744337634011,78.45847908,51.11772187,1676.0,54151.0,4743.29,0.12833078101071976,2.7533631719755696
8083,Montezuma County,Colorado,CO,12760,13149,44.4,25909,50.75070438843645,37.338562490662135,-108.59657713130177,77.64445018,50.77215419,4031.0,40679.0,2029.53,0.1555830020456212,12.766009864352831
8085,Montrose County,Colorado,CO,20374,20894,45.1,41268,50.6300281089464,38.40218300038856,-108.26933795513878,79.59093872,47.39416709,6716.0,43285.0,2240.7,0.16274110691092372,18.417458829829965
8091,Ouray County,Colorado,CO,2312,2410,53.0,4722,51.03769589157137,38.155465143267094,-107.76927130278031,83.00487766,35.61916604,426.0,66813.0,541.59,0.09021601016518424,8.718772503185066
8097,Pitkin County,Colorado,CO,9408,8501,42.0,17909,47.467753643419506,39.21708541554017,-106.91659862846625,86.51935805,24.32773397,1227.0,74576.0,970.7,0.06851303813724943,18.449572473472752
8099,Prowers County,Colorado,CO,6035,6017,38.0,12052,49.92532359774312,37.95519536784376,-102.39335974662973,77.68598893,52.98456061,2421.0,40164.0,1638.4,0.20087952207102555,7.35595703125
8101,Pueblo County,Colorado,CO,80962,83723,38.9,164685,50.838266994565394,38.17352288761175,-104.51273216338602,77.49822546,52.01296131,32053.0,44644.0,2386.1,0.1946321765795306,69.01848204182558
8103,Rio Blanco County,Colorado,CO,3291,3174,35.9,6465,49.09512761020881,39.97985127800352,-108.21705233028338,79.25476249,48.56792771,591.0,58980.0,3220.93,0.091415313225058,2.0071842604465173
8105,Rio Grande County,Colorado,CO,5696,5655,41.5,11351,49.81939917187914,37.58251942983932,-106.38322986022476,77.70912428,52.05302669,1972.0,41128.0,911.96,0.17372918685578362,12.446817842887846
8107,Routt County,Colorado,CO,12915,11959,39.8,24874,48.07831470611884,40.48514360967252,-106.99125344979768,82.73038727,38.64104527,1766.0,71322.0,2362.03,0.07099782905845461,10.53077225945479
8109,Saguache County,Colorado,CO,3182,3286,49.1,6468,50.80395794681509,38.080526607508375,-106.28150636095563,79.75099557,45.94102338,1757.0,33973.0,3168.53,0.27164502164502163,2.0413251570917743
8119,Teller County,Colorado,CO,12157,11956,49.9,24113,49.58321237506739,38.88215682972448,-105.16177889481385,80.75879006,43.97446555,2278.0,63966.0,557.06,0.09447186165139136,43.28618102179299
8123,Weld County,Colorado,CO,148627,146496,34.3,295123,49.63896409293753,40.55483428651925,-104.39246146555716,80.01678824,47.11324256,33377.0,63609.0,3987.24,0.11309521792608505,74.01686379550767
8125,Yuma County,Colorado,CO,5019,5050,38.4,10069,50.153937828980034,40.002936546236675,-102.42424849126851,79.43253641,48.11548718,1207.0,48963.0,2364.41,0.119872877147681,4.258567676502807
9003,Hartford County,Connecticut,CT,434650,460080,40.4,894730,51.42109910252255,41.80640591690197,-72.73287268847098,80.07763466,45.9762265,95010.0,69341.0,735.1,0.10618845908821656,1217.1541286899742
9005,Litchfield County,Connecticut,CT,90447,92584,47.2,183031,50.58378088957608,41.79248072795551,-73.24533246375512,80.73934229999999,46.165519700000004,12952.0,76323.0,920.56,0.07076396894515137,198.82571478230642
9009,New Haven County,Connecticut,CT,414311,445028,40.1,859339,51.787245778441346,41.41047804821459,-72.93207761888479,79.81420566,46.70828097,94687.0,66012.0,604.51,0.11018585214915184,1421.5463764040298
9011,New London County,Connecticut,CT,134703,134178,41.4,268881,49.902373168799585,41.48661392494676,-72.10147371348694,80.1825017,47.01136884,23961.0,70258.0,664.88,0.08911377151974294,404.4053062206714
9013,Tolland County,Connecticut,CT,75821,75448,37.5,151269,49.876709702582815,41.85504180401762,-72.33647701640963,81.64461418,44.40849458,9786.0,81369.0,410.21,0.06469269976003014,368.7599034640794
10003,New Castle County,Delaware,DE,268870,286263,38.1,555133,51.56656152669721,39.5768334366461,-75.65269158568691,78.98544854,49.25344167,61319.0,67246.0,426.29,0.11045821451796237,1302.2426047995496
11001,District of Columbia,District of Columbia,,324881,359617,33.9,684498,52.537333929390606,38.904733935498726,-77.01629383836658,76.85619461,46.03541843,119778.0,74093.0,61.05,0.1749866325394669,11212.088452088452
12001,Alachua County,Florida,FL,127298,135850,31.3,263148,51.62494109778528,29.67474971890421,-82.3577136804271,78.64154374,49.53955987,55990.0,45294.0,875.02,0.21277000015200573,300.73369751548535
12009,Brevard County,Florida,FL,282023,294785,47.2,576808,51.10626066212674,28.293721855653967,-80.73227050221601,78.52202176,47.87587781,84028.0,51214.0,1015.66,0.14567759115684942,567.9144595632397
12011,Broward County,Florida,FL,929712,979439,40.1,1909151,51.302332817048,26.152322379181037,-80.48712563481989,80.25257969,41.50375593,256027.0,54055.0,1209.79,0.13410515983282623,1578.0846262574496
12017,Citrus County,Florida,FL,69376,73711,56.2,143087,51.51481266641972,28.84891085374661,-82.47939451581993,76.72953914,50.02026177,23472.0,40009.0,581.7,0.1640400595441934,245.98074608904932
12021,Collier County,Florida,FL,179336,184586,50.3,363922,50.72130841224218,26.110715650069547,-81.34757344148187,83.43375257,30.61521172,41076.0,62397.0,1998.32,0.11287034034765692,182.11397573962128
12029,Dixie County,Florida,FL,9218,7219,47.3,16437,43.91920666788344,29.608191599772557,-83.15880036818349,74.78777218,56.732303099999996,3697.0,34146.0,705.05,0.22491938918294094,23.3132401957308
12033,Escambia County,Florida,FL,154520,157002,37.2,311522,50.398366728513565,30.66892673365146,-87.36278300432998,76.33427033,54.90551617,45044.0,45004.0,656.46,0.14459331925193084,474.5483350089876
12035,Flagler County,Florida,FL,51187,55952,50.9,107139,52.22374672154865,29.461424845918266,-81.31356839145538,79.67273374,42.95237358,11997.0,50863.0,485.46,0.11197603113712094,220.6958348782598
12039,Gadsden County,Florida,FL,21785,24232,40.7,46017,52.65880000869244,30.57947808300991,-84.61362454008069,74.86793484,55.09755722,8906.0,40865.0,516.33,0.19353717104548318,89.12323514031723
12041,Gilchrist County,Florida,FL,9249,8366,42.5,17615,47.49361339767243,29.725832116937923,-82.80037637542131,76.80185702,54.66936562,2825.0,41721.0,349.68,0.1603746806698836,50.37462823152597
12043,Glades County,Florida,FL,7303,6060,47.2,13363,45.34909825637957,26.95643070782842,-81.18907378189233,79.75273371,39.65729418,2672.0,39607.0,806.01,0.19995509990271645,16.57919876924604
12045,Gulf County,Florida,FL,9586,6469,44.3,16055,40.292743693553405,29.955533791104088,-85.22659118243888,76.40109535,54.87358827,2958.0,38381.0,564.01,0.18424166926191218,28.465807343841423
12049,Hardee County,Florida,FL,14705,12523,35.1,27228,45.993095343029225,27.49270248675437,-81.8099829757123,78.50587554,44.89291153,6081.0,37612.0,637.78,0.2233362714852358,42.691837310671396
12051,Hendry County,Florida,FL,21437,18690,33.9,40127,46.57711765145663,26.553483325686326,-81.1658511122754,77.28930072,49.09588921,9712.0,39911.0,1152.75,0.242031549829292,34.80980264584689
12053,Hernando County,Florida,FL,87747,94949,48.9,182696,51.97103384857906,28.553631869514195,-82.4250382875201,77.59602937,49.02604229,27794.0,46225.0,472.54,0.1521325042693874,386.6254708596098
12055,Highlands County,Florida,FL,49727,52374,53.4,102101,51.29626546263014,27.343294339378854,-81.34103830391945,79.06932612,41.11528639,19035.0,36864.0,1016.62,0.1864330417919511,100.43182310007673
12061,Indian River County,Florida,FL,72290,78694,52.9,150984,52.120754517034925,27.69431170639811,-80.60624480956191,79.96200454,40.61752097,18518.0,49813.0,502.87,0.12264875748423675,300.2445960188518
12075,Levy County,Florida,FL,19364,20597,46.8,39961,51.542754185330686,29.31842893363033,-82.74355311874234,75.43030798,55.70987579999999,8467.0,33092.0,1118.21,0.2118815845449313,35.73657899678951
12081,Manatee County,Florida,FL,180595,193258,48.0,373853,51.69358009699,27.471905677439604,-82.31531846354605,80.36472752,38.90323961,47042.0,51770.0,742.93,0.12583020599005493,503.21430013594824
12086,Miami-Dade County,Florida,FL,1318627,1396889,39.7,2715516,51.44101526192444,25.614959287482186,-80.56228896188752,80.90495113,40.417381799999994,487700.0,45886.0,1897.72,0.17959754241919398,1430.936070653205
12091,Okaloosa County,Florida,FL,101745,98992,36.8,200737,49.3142768896616,30.691283659672578,-86.59172167469082,78.38231682,52.03759309,21032.0,58009.0,930.25,0.10477390814847287,215.7882289707068
12093,Okeechobee County,Florida,FL,21866,18706,41.1,40572,46.1056886522725,27.386442352560127,-80.88863138971482,76.08662922,51.44891706,7547.0,37689.0,768.91,0.1860149857044267,52.76560325655799
12099,Palm Beach County,Florida,FL,701207,745070,44.6,1446277,51.51641075672226,26.64759584426105,-80.46551002338627,81.2374923,36.2707924,178918.0,57607.0,1969.76,0.12370935858068682,734.2402120055235
12101,Pasco County,Florida,FL,248572,262021,44.6,510593,51.316998078704565,28.309095478557378,-82.39319537627861,77.70477371,48.13620028,66980.0,46326.0,746.89,0.13118080349711023,683.6254334640978
12103,Pinellas County,Florida,FL,459766,498109,47.8,957875,52.00146156857628,27.919601540135304,-82.7255990416769,78.88860743,45.25232217,125923.0,49974.0,273.8,0.13146078559310975,3498.4477720964205
12109,St. Johns County,Florida,FL,114660,120843,43.4,235503,51.31272213092826,29.901641120442296,-81.44066458471889,80.68875974,42.80995235,17838.0,78544.0,600.66,0.07574425803492948,392.0737189091999
12111,St. Lucie County,Florida,FL,149385,156206,44.8,305591,51.11603417639918,27.37725646405573,-80.47202647272216,79.12095644,42.39473436,51657.0,45509.0,571.93,0.16903966412623408,534.3153882468134
12113,Santa Rosa County,Florida,FL,87175,83267,39.7,170442,48.8535689560085,30.700441588009053,-87.0219783377785,78.19713057,52.27611288,17308.0,62668.0,1011.61,0.10154774058037339,168.4858789454434
12115,Sarasota County,Florida,FL,196433,215711,55.5,412144,52.338745681121146,27.18446789188277,-82.33150444148295,81.51287412,36.6274843,43904.0,55088.0,555.87,0.10652587445164796,741.4395452174069
12121,Suwannee County,Florida,FL,22230,21694,42.5,43924,49.38985520444404,30.1956050583855,-82.99149467549117,75.40610243,56.34921688,8244.0,40572.0,688.55,0.1876878244240051,63.79202672282333
12127,Volusia County,Florida,FL,257275,270359,46.5,527634,51.23987461005166,29.05842069048299,-81.1819206464182,77.48526705,49.47252068,73420.0,45356.0,1101.03,0.1391494861968713,479.2185499032724
12129,Wakulla County,Florida,FL,17490,14387,40.7,31877,45.13285440913511,30.16731985949023,-84.40067670819596,76.40715152,56.58987266,3728.0,56158.0,606.42,0.11694952473570286,52.56587843408859
13001,Appling County,Georgia,GA,9353,9101,39.0,18454,49.31722119865612,31.74922311475336,-82.28889645061686,74.29149206,60.72090167,3542.0,37954.0,507.08,0.1919367074888913,36.39267965607005
13003,Atkinson County,Georgia,GA,4208,4057,35.5,8265,49.0865093768905,31.297133177431412,-82.88007086610327,73.92147290000001,62.97748641,2176.0,33318.0,339.38,0.2632788868723533,24.353232364900702
13005,Bacon County,Georgia,GA,5564,5664,37.0,11228,50.44531528322052,31.55368008748609,-82.45269850637237,72.90546723,65.45027846,2524.0,36873.0,258.58,0.22479515496971855,43.421765024363836
13009,Baldwin County,Georgia,GA,22759,22527,35.3,45286,49.74385019652873,33.06926620604074,-83.24955570280326,76.09169623,56.03432463,10273.0,40683.0,257.84,0.2268471492293424,175.6360533664288
13011,Banks County,Georgia,GA,9281,9229,41.1,18510,49.859535386277685,34.354150509758256,-83.49737690472382,77.39513601,53.35538231,2845.0,43370.0,232.09,0.15370070232306862,79.75354388383816
13013,Barrow County,Georgia,GA,37771,39116,35.4,76887,50.874660215641136,33.99318851194388,-83.71273176520245,76.40287029,56.55737949,9888.0,54893.0,160.31,0.12860431542393383,479.61449691223254
13015,Bartow County,Georgia,GA,51332,52288,37.9,103620,50.461300907160776,34.237864926592806,-84.84049136346613,76.13478289,57.85896749,15442.0,52497.0,459.54,0.1490252846940745,225.4863559211385
13017,Ben Hill County,Georgia,GA,8047,9107,39.7,17154,53.089658388714,31.75979096552452,-83.22050662751855,73.58802222,62.65380211,4467.0,32644.0,250.12,0.26040573627142355,68.58308012154166
13021,Bibb County,Georgia,GA,72065,81425,36.2,153490,53.04905857059092,32.80649503959659,-83.6974049052155,73.78167013,59.99116055,38547.0,38115.0,249.76,0.2511368818815558,614.5499679692505
13023,Bleckley County,Georgia,GA,5937,6838,36.8,12775,53.52641878669277,32.43444533648342,-83.32781353408475,75.79138025,56.22168516,2514.0,41447.0,215.87,0.19679060665362036,59.179135590864874
13025,Brantley County,Georgia,GA,9103,9458,40.9,18561,50.95630623350035,31.19687588159824,-81.98190369036095,74.81442046,60.17589479,3795.0,37675.0,442.36,0.20446096654275092,41.95903788769328
13031,Bulloch County,Georgia,GA,36777,38005,28.5,74782,50.82105319461903,32.396807700709054,-81.74318109731512,77.07468728,55.18372622,16650.0,42083.0,672.81,0.2226471610815437,111.14876413846406
13035,Butts County,Georgia,GA,12661,11089,38.5,23750,46.69052631578947,33.287881117452336,-83.9571851283701,74.03629885,61.95607226,3586.0,46141.0,184.39,0.15098947368421053,128.80308042735507
13043,Candler County,Georgia,GA,5363,5464,37.8,10827,50.466426526276905,32.403441866832,-82.07366026690293,74.36870978,60.44018349,2647.0,32970.0,243.04,0.2444813891197931,44.54822251481238
13047,Catoosa County,Georgia,GA,31991,34308,39.9,66299,51.747386838413846,34.903628899945566,-85.1382495470056,78.09969162,52.43212271,8505.0,53740.0,162.16,0.12828247786542785,408.84928465712875
13049,Charlton County,Georgia,GA,7522,5461,41.7,12983,42.062697373488405,30.78172966832286,-82.13793183909222,75.38238923,58.89050824,2725.0,38948.0,773.58,0.20988985596549334,16.783008867861113
13053,Chattahoochee County,Georgia,GA,7172,3595,23.7,10767,33.38905916225504,32.34698433321824,-84.78702090474056,77.12990179,57.04719032,1639.0,44097.0,248.74,0.1522243893377914,43.2861622577792
13055,Chattooga County,Georgia,GA,12865,11952,39.5,24817,48.16053511705686,34.47500026331241,-85.34534078306989,74.52374197,61.38999784,4716.0,37345.0,313.34,0.19003102711850747,79.20150635092871
13065,Clinch County,Georgia,GA,3427,3316,37.7,6743,49.17692421770725,30.91499529746785,-82.7062571569877,73.14401446,63.92207526,1752.0,34777.0,800.22,0.2598250037075486,8.426432730998975
13067,Cobb County,Georgia,GA,360270,384787,36.5,745057,51.64531035880477,33.941481403689004,-84.57669231618759,80.08166084,49.50319291,73446.0,70950.0,339.55,0.0985776927134434,2194.2482697688115
13071,Colquitt County,Georgia,GA,22554,23052,36.4,45606,50.545980792001046,31.188376864146942,-83.76879848979921,74.78034148,58.41511975,11252.0,34931.0,544.15,0.2467219225540499,83.81144904897548
13077,Coweta County,Georgia,GA,68430,72086,38.5,140516,51.30091946824561,33.353464261142136,-84.76335813394353,78.17267192,53.12731698,13867.0,71114.0,440.89,0.098686270602636,318.7098822835628
13081,Crisp County,Georgia,GA,10849,11997,38.8,22846,52.512474831480354,31.922911533424397,-83.76805458478232,74.87430322,56.72277345,6751.0,34211.0,272.58,0.2955003063993697,83.81392618680755
13093,Dooly County,Georgia,GA,7529,6376,43.7,13905,45.85400934915498,32.15718703870342,-83.79879578129345,77.15700111,52.83402170000001,3386.0,40591.0,391.94,0.24350952894642214,35.477368985048734
13095,Dougherty County,Georgia,GA,42144,48905,35.1,91049,53.71283594547991,31.533464176261248,-84.2163863940889,75.18720167,56.818068200000006,26389.0,35750.0,328.69,0.2898329470944217,277.0056892512702
13099,Early County,Georgia,GA,4791,5557,40.7,10348,53.70119829918825,31.322828065272226,-84.9036560198351,73.75668013,58.50297041,3210.0,26934.0,512.59,0.310204870506378,20.18767435962465
13101,Echols County,Georgia,GA,1973,2021,40.9,3994,50.60090135202804,30.710050404607664,-82.8939614401204,77.31189299,53.03415704,913.0,35892.0,414.89,0.22859288933400101,9.62664802718793
13105,Elbert County,Georgia,GA,9188,10024,42.6,19212,52.175723506142,34.11679503971489,-82.84014598002616,74.77547792,57.92798638,4197.0,37131.0,351.06,0.21845721424109932,54.725687916595454
13107,Emanuel County,Georgia,GA,11105,11394,36.8,22499,50.642250766700755,32.58973973272469,-82.30171316851842,73.37034593,63.13270624,5911.0,32495.0,680.6,0.2627227876794524,33.05759623861299
13109,Evans County,Georgia,GA,5303,5424,37.7,10727,50.56399738976415,32.156764561306865,-81.88688163404811,74.73928455,59.71672689,2500.0,34689.0,182.85,0.23305677262981261,58.66557287394039
13125,Glascock County,Georgia,GA,1438,1571,43.2,3009,52.210036556995675,33.22928288536465,-82.61070062299643,74.1386662,61.41712505,539.0,41412.0,143.74,0.17912927883017613,20.933630165576734
13127,Glynn County,Georgia,GA,39419,44555,41.0,83974,53.05808940862647,31.230896488306307,-81.54071676718564,76.90267457,52.336283,15916.0,48691.0,419.75,0.18953485602686546,200.05717689100655
13129,Gordon County,Georgia,GA,28001,28789,37.8,56790,50.69378411692199,34.5033605690871,-84.87570724278247,75.72979015,59.43264071,9020.0,45705.0,355.81,0.1588307800669132,159.60765577133864
13135,Gwinnett County,Georgia,GA,441051,461247,35.1,902298,51.119142456261685,33.96172854043182,-84.02359470088649,80.57776751,48.22579108,102033.0,67197.0,430.38,0.11308126583456907,2096.5147079325247
13137,Habersham County,Georgia,GA,20962,23327,39.5,44289,52.66996319627899,34.63102796897802,-83.53112369360295,78.30231149,51.26538747,6500.0,46828.0,276.74,0.1467633046580415,160.03830310038302
13143,Haralson County,Georgia,GA,14041,14915,40.8,28956,51.509186351706035,33.79421744119261,-85.21101885254258,73.75209304,61.81622281,5306.0,43196.0,282.17,0.18324354192568035,102.61898855299997
13149,Heard County,Georgia,GA,5747,5930,41.5,11677,50.78359167594416,33.2970394184972,-85.12833608227382,74.80519079999999,58.15735942,2227.0,41994.0,296.03,0.19071679369701122,39.44532648718036
13155,Irwin County,Georgia,GA,4758,4510,39.9,9268,48.662063012516185,31.602213635259943,-83.27635387196311,75.4464035,55.00185174,1997.0,35866.0,354.34,0.2154725938713854,26.155669695772424
13165,Jenkins County,Georgia,GA,4055,4772,43.7,8827,54.061402515010755,32.7924472715822,-81.9635495362388,74.00471969,59.76821058,2606.0,30611.0,347.28,0.29523054265322307,25.417530522920988
13173,Lanier County,Georgia,GA,5183,5183,35.4,10366,50.0,31.03787301419776,-83.06275656378837,75.40496605,59.24406593,2316.0,35690.0,185.26,0.22342272814972025,55.95379466695455
13183,Long County,Georgia,GA,8872,9284,32.7,18156,51.13461114782992,31.752555201377373,-81.74569516867166,77.10499909999999,54.80121149,3365.0,44542.0,400.29,0.1853381802159066,45.35711609083414
13187,Lumpkin County,Georgia,GA,15551,16400,37.2,31951,51.3285969140246,34.57218743697272,-84.00267573416865,77.58842787,53.718266500000006,4711.0,47287.0,282.93,0.1474445244280304,112.928993037147
13189,McDuffie County,Georgia,GA,9999,11499,37.6,21498,53.488696622941674,33.48286163979095,-82.48136661504543,73.75544182,62.10206653,4824.0,39642.0,257.46,0.22439296678760814,83.50034956886508
13199,Meriwether County,Georgia,GA,10221,10892,41.6,21113,51.58906834651636,33.040664222233836,-84.68831071107692,74.86885764,56.10856616,4417.0,34508.0,501.22,0.20920759721498602,42.12321934479869
13215,Muscogee County,Georgia,GA,96279,100391,33.9,196670,51.04540601006764,32.51002371368805,-84.87706039104368,75.1349134,57.79342274,41006.0,40895.0,216.39,0.20850155082117253,908.8682471463562
13221,Oglethorpe County,Georgia,GA,7396,7388,42.1,14784,49.972943722943725,33.88066819420212,-83.08070771617628,77.92611961,51.24787942,2272.0,45319.0,439.01,0.15367965367965367,33.675770483588074
13225,Peach County,Georgia,GA,12952,14014,36.9,26966,51.9691463324186,32.56875549820775,-83.82689022730187,73.8249458,61.38813765,5522.0,44330.0,150.27,0.204776385077505,179.45032275237904
13241,Rabun County,Georgia,GA,8107,8350,48.8,16457,50.73828765874704,34.88173555762309,-83.40208021933655,77.48198507,50.75188887,2794.0,41913.0,369.99,0.1697757793036398,44.47958052920349
13247,Rockdale County,Georgia,GA,41944,47067,37.7,89011,52.877734212625406,33.65425070435243,-84.0265900693865,78.21606563,53.23606469,12943.0,56689.0,129.79,0.1454089943939513,685.8078434394022
13249,Schley County,Georgia,GA,2546,2665,37.8,5211,51.14181539052005,32.261662557368844,-84.31475698370534,76.26081513,56.01120471,942.0,43396.0,166.91,0.1807714450201497,31.220418189443414
13251,Screven County,Georgia,GA,6804,7186,41.5,13990,51.365260900643314,32.75060542525908,-81.61194170828179,74.31629408,59.52474243,3744.0,36414.0,645.1,0.26761972837741244,21.686560223221207
13255,Spalding County,Georgia,GA,31395,33324,39.1,64719,51.490288786909574,33.260886846415865,-84.28409469167887,74.62348186,59.93719864,14243.0,43065.0,196.47,0.2200744758108129,329.4090700870362
13265,Taliaferro County,Georgia,GA,847,818,46.3,1665,49.12912912912913,33.56613476013978,-82.87877142234885,75.44220918,54.16926903,457.0,30133.0,194.61,0.2744744744744745,8.555572683829196
13267,Tattnall County,Georgia,GA,14888,10465,37.4,25353,41.27716641028675,32.045797654832924,-82.05812943063302,74.92996891,59.83733497,6108.0,35567.0,479.4,0.24091823452845817,52.884856070087615
13271,Telfair County,Georgia,GA,9346,6769,41.0,16115,42.00434377908781,31.929805870155395,-82.93901137308181,76.02263057,53.95559361,3916.0,32327.0,437.3,0.24300341296928327,36.851131946032474
13277,Tift County,Georgia,GA,19509,21001,35.5,40510,51.84152061219452,31.45742933036171,-83.52660087699131,75.35899926,57.89533982,8669.0,39982.0,258.92,0.21399654406319427,156.4575930789433
13279,Toombs County,Georgia,GA,12491,14557,36.4,27048,53.81913635019225,32.12161158005105,-82.33121596075421,74.15441278,62.09628289,6266.0,36765.0,364.01,0.23166223010943507,74.3056509436554
13281,Towns County,Georgia,GA,5334,6083,53.7,11417,53.28019619865113,34.91671068320698,-83.73730602696065,78.23926204,48.18320487,1558.0,42439.0,166.56,0.13646316895857055,68.54586935638808
13283,Treutlen County,Georgia,GA,3573,3204,39.7,6777,47.27755644090306,32.403874795903945,-82.56728819880553,75.08965253,57.80559426,1717.0,32100.0,199.44,0.2533569425999705,33.98014440433213
13285,Troup County,Georgia,GA,33387,36387,36.3,69774,52.14979791899561,33.03353962825329,-85.02836514828462,75.14133413,57.71037257,13731.0,42955.0,413.99,0.19679250150485855,168.5403029058673
13289,Twiggs County,Georgia,GA,4068,4216,46.2,8284,50.89328826653791,32.66720049189172,-83.42707722438509,74.66248621,59.29073952,1893.0,38507.0,358.4,0.22851279575084502,23.11383928571429
13293,Upson County,Georgia,GA,12503,13713,41.7,26216,52.30775099176076,32.881274804687685,-84.29934917654766,73.71477825,62.74120332,5124.0,34039.0,323.44,0.19545315837656393,81.05367301508781
13297,Walton County,Georgia,GA,43775,46357,38.7,90132,51.432343673722976,33.78155675435902,-83.73386980893855,76.60224759,55.75687699,11385.0,55267.0,325.68,0.1263147383837039,276.75018422991894
13299,Ware County,Georgia,GA,17753,17846,38.4,35599,50.130621646675465,31.053788550656524,-82.42371808286023,74.21652357,59.5708468,8501.0,34643.0,892.46,0.23879884266411977,39.88862245926988
13313,Whitfield County,Georgia,GA,51525,52324,36.0,103849,50.384693160261534,34.805611273582414,-84.96720773229019,77.06077674,55.39933593,16688.0,46796.0,290.46,0.1606948550298992,357.53287888177374
13315,Wilcox County,Georgia,GA,5242,3604,39.5,8846,40.741578114401996,31.972897241156026,-83.43234537904169,75.02650289,57.94265363,2115.0,33858.0,377.71,0.2390911146280805,23.420084191575548
15001,Hawaii County,Hawaii,HI,98276,99382,42.3,197658,50.279776179056746,19.598720832762478,-155.51849348203962,80.14975770000001,42.0562661,29962.0,54684.0,4028.42,0.151585061065072,49.06588687376192
15003,Honolulu County,Hawaii,HI,497646,489992,37.6,987638,49.61250984672522,21.500785361340995,-158.10533417955455,81.3719756,40.44702477,81341.0,80012.0,600.74,0.08235912348451559,1644.0356893165097
15005,Kalawao County,Hawaii,HI,38,37,57.1,75,49.33333333333334,21.17088723716075,-156.94752928958926,80.99196037,40.65492006,,,11.99,,6.255212677231026
15007,Kauai County,Hawaii,HI,35375,36002,42.4,71377,50.43921711475685,22.03962536798675,-159.59634878220444,81.06994817,40.52223131,5716.0,63164.0,619.96,0.08008181907337097,115.1316213949287
15009,Maui County,Hawaii,HI,82437,82844,41.1,165281,50.12312365002632,20.85964011353776,-156.56484629546918,80.99196037,40.65492006,15578.0,69699.0,1161.52,0.094251607867813,142.29716233900407
16001,Ada County,Idaho,ID,223367,222685,36.7,446052,49.923551514173234,43.451092413535605,-116.2411608694026,80.74508905,45.9473892,46600.0,61571.0,1052.58,0.10447212432631173,423.7701647380722
16005,Bannock County,Idaho,ID,42300,42765,33.3,85065,50.2733204020455,42.66848736883946,-112.2246106315902,77.85750331,53.46999237,13780.0,48453.0,1111.99,0.16199376947040497,76.49799008983894
16007,Bear Lake County,Idaho,ID,2898,3064,39.3,5962,51.392150285139216,42.28478414560279,-111.3296870231912,78.65287492,50.54036514,823.0,45875.0,974.79,0.1380409258638041,6.116189127914731
16009,Benewah County,Idaho,ID,4607,4479,46.1,9086,49.29561963460268,47.217552580658634,-116.65870892318665,76.76685588,55.45211238,1624.0,45285.0,776.62,0.17873651771956856,11.699415415518528
16011,Bingham County,Idaho,ID,22746,22805,33.5,45551,50.064762573818356,43.21655175084742,-112.39809334143743,78.65273822,49.74421185,6181.0,51586.0,2093.98,0.1356940572105991,21.75331187499403
16015,Boise County,Idaho,ID,3780,3383,53.0,7163,47.22881474242636,43.98913016767068,-115.73036319079512,81.05463945,41.88468431,965.0,50123.0,1899.24,0.13472008934803853,3.7715086034413767
16017,Bonner County,Idaho,ID,21366,21345,47.8,42711,49.97541616913675,48.300043200720495,-116.60107557638287,79.37031796,48.70310687,6476.0,48097.0,1734.57,0.15162370349558663,24.62339369411439
16019,Bonneville County,Idaho,ID,56237,56160,32.7,112397,49.96574641671929,43.38773727219922,-111.61479126751085,78.99575571,51.71185037,13072.0,59293.0,1866.08,0.11630203653122415,60.23160850553031
16021,Boundary County,Idaho,ID,5735,5814,43.5,11549,50.34202095419518,48.766868569461685,-116.46287427634844,78.19323205,51.54406558,1973.0,42725.0,1268.56,0.1708373019309031,9.104023459670808
16025,Camas County,Idaho,ID,433,453,46.3,886,51.12866817155757,43.463329368952074,-114.80576739792693,80.88771659999999,40.98064388,106.0,49153.0,1074.49,0.11963882618510158,0.8245772412958706
16027,Canyon County,Idaho,ID,104902,107328,33.4,212230,50.571549733779385,43.625136865544484,-116.7093125890369,79.04861555,49.23182554,31525.0,48461.0,587.37,0.14854167648306082,361.3225054054514
16029,Caribou County,Idaho,ID,3543,3375,36.9,6918,48.785776235906326,42.770496624521634,-111.56225975044258,78.78982212,49.57035904,769.0,55152.0,1764.15,0.11115929459381324,3.9214352521044127
16031,Cassia County,Idaho,ID,12039,11576,32.2,23615,49.01969087444421,42.28388223476903,-113.60010075689286,78.77586483,48.9746692,3282.0,48983.0,2565.08,0.13897946220622487,9.206340542985014
16039,Elmore County,Idaho,ID,13858,12575,31.9,26433,47.57310937086218,43.353955143058585,-115.46929719662232,78.45862615,51.47403829,3531.0,45003.0,3074.74,0.13358302122347065,8.596824446945108
16045,Gem County,Idaho,ID,8354,8698,45.1,17052,51.00867933380249,44.06154619190838,-116.39751661550372,78.46695264,50.96617375,3042.0,42027.0,560.9,0.17839549612948627,30.401141023355322
16047,Gooding County,Idaho,ID,7911,7258,37.8,15169,47.84758388819303,42.97102592237642,-114.81153827830832,78.13108552,51.17982952,2083.0,46948.0,728.97,0.13731953325861956,20.808812433982194
16049,Idaho County,Idaho,ID,8537,7800,50.0,16337,47.74438391381526,45.844069631141245,-115.46750875765207,79.56936905,45.91796354,2531.0,42049.0,8477.35,0.15492440472546978,1.9271352486331224
16053,Jerome County,Idaho,ID,11801,11630,32.7,23431,49.63509880073407,42.68987595703055,-114.26392555344331,78.26228199,50.73823625,3644.0,48590.0,597.19,0.1555204643421109,39.235419213315694
16055,Kootenai County,Idaho,ID,75890,77715,40.2,153605,50.59405618306696,47.674374625723885,-116.70182621419231,79.50673067,49.476844799999995,22165.0,52019.0,1244.13,0.1442986881937437,123.46378593876845
16057,Latah County,Idaho,ID,19894,19345,28.3,39239,49.30044088789215,46.816170036764575,-116.71168186657472,81.01358733,44.63582364,6326.0,43767.0,1076.0,0.1612171564005199,36.46747211895911
16059,Lemhi County,Idaho,ID,3948,3850,52.3,7798,49.371633752244165,44.943255746130106,-113.93325201509221,79.39163829,47.43860244,1351.0,39934.0,4563.39,0.1732495511669659,1.7088173485062639
16067,Minidoka County,Idaho,ID,10377,10238,35.2,20615,49.662866844530676,42.854292472448456,-113.63747008364713,78.60745746,48.76443095,3243.0,48903.0,757.59,0.15731263642978413,27.211288427777557
16069,Nez Perce County,Idaho,ID,19758,20397,40.9,40155,50.79566679118416,46.32681553105233,-116.75024312060063,78.22661828,51.42548289,5861.0,50030.0,848.09,0.14595940729672519,47.34756924383025
16073,Owyhee County,Idaho,ID,5874,5581,38.4,11455,48.721082496726325,42.58149963776419,-116.1699154368443,78.7018178,48.86278412,1942.0,35866.0,7665.51,0.16953295504146662,1.4943558876056517
16075,Payette County,Idaho,ID,11470,11571,39.9,23041,50.21917451499501,44.00675700258796,-116.760821112899,78.50801268,51.43076199,3639.0,46595.0,406.87,0.15793585347858166,56.629881780421265
16077,Power County,Idaho,ID,3781,3932,37.7,7713,50.978866848178384,42.693644414612734,-112.84066931679523,78.37030814,51.10735348,1188.0,45933.0,1404.24,0.15402567094515754,5.4926508289181335
16079,Shoshone County,Idaho,ID,6267,6259,47.4,12526,49.96806642184257,47.352940813146894,-115.89236293560565,75.89596204,57.54246025,2319.0,39285.0,2629.67,0.18513491936771515,4.763335323443626
16083,Twin Falls County,Idaho,ID,41204,42462,34.7,83666,50.75179881911409,42.35596961880623,-114.66715073308558,78.03700698,52.37309732,11954.0,49415.0,1921.21,0.14287763249109556,43.54859697794619
17005,Bond County,Illinois,IL,8587,8125,41.3,16712,48.61775969363332,38.886833053590045,-89.43554636928486,78.87071293,49.86377492,2031.0,53631.0,380.28,0.12152943992340833,43.9465656884401
17011,Bureau County,Illinois,IL,16437,16944,44.0,33381,50.75941403792578,41.40412582926175,-89.52866709484049,79.49377701,48.19508686,3775.0,53410.0,869.03,0.11308828375423145,38.411792458258056
17029,Coles County,Illinois,IL,24999,26737,35.2,51736,51.67968145971857,39.52027962074658,-88.22179644067499,78.42227631,52.38446678,9348.0,42066.0,508.29,0.18068656254832224,101.78441440909717
17039,De Witt County,Illinois,IL,8015,8027,43.1,16042,50.03740182022192,40.17461502485114,-88.90407554578636,78.05191712,53.44047075,1686.0,54926.0,397.51,0.10509911482358808,40.356217453648966
17043,DuPage County,Illinois,IL,457178,474565,39.1,931743,50.9330362557057,41.851952678102776,-88.08559582772855,81.87042531,44.51179091,64330.0,84999.0,327.5,0.06904264373330414,2845.01679389313
17045,Edgar County,Illinois,IL,8617,8922,44.6,17539,50.86949084896516,39.678551888750505,-87.7455924670323,77.32887754,55.03433409,2350.0,47062.0,623.37,0.1339871144306973,28.13577810930908
17049,Effingham County,Illinois,IL,16971,17203,39.1,34174,50.33943933984902,39.059797605611685,-88.58986009711442,79.01313295,51.19057471,3709.0,51809.0,478.78,0.10853280271551471,71.37725051171728
17075,Iroquois County,Illinois,IL,13751,14418,44.5,28169,51.1839255919628,40.74724323533175,-87.8243385145013,77.55732840000002,53.31886022,3688.0,47589.0,1117.32,0.13092406546203272,25.211219704292414
17083,Jersey County,Illinois,IL,10841,11228,42.7,22069,50.87679550500702,39.0856840797399,-90.35668523734932,78.16979858,53.63889658,2369.0,57243.0,369.27,0.10734514477321129,59.76385842337585
17085,Jo Daviess County,Illinois,IL,10956,10878,49.7,21834,49.8213794998626,42.36575464799677,-90.21249871694927,80.85577372,44.57129823,2145.0,54169.0,601.09,0.0982412750755702,36.32401137932755
17091,Kankakee County,Illinois,IL,54615,56446,37.6,111061,50.82432176911787,41.13771025937167,-87.86183129275948,77.0278446,55.23213423,14958.0,54624.0,676.56,0.1346827419166044,164.1554333688069
17109,McDonough County,Illinois,IL,15009,15866,32.1,30875,51.38785425101214,40.45619404065306,-90.67791394623416,79.60397095,49.82401885,5470.0,44460.0,589.41,0.177165991902834,52.382891365942214
17117,Macoupin County,Illinois,IL,22602,23117,43.6,45719,50.56322316761084,39.2610041650631,-89.9244317102756,78.02152025,52.89154214,5962.0,52483.0,862.91,0.13040530195323607,52.98235041893129
17127,Massac County,Illinois,IL,6794,7636,43.8,14430,52.917532917532924,37.21896984324482,-88.70772193834992,75.88485458,57.99897141,2972.0,42833.0,237.22,0.20595980595980595,60.82960964505522
17139,Moultrie County,Illinois,IL,7172,7531,40.3,14703,51.22083928449976,39.64147353663316,-88.61929701812147,78.18579081,54.85253384,1444.0,57447.0,335.94,0.09821124940488336,43.766744061439546
17141,Ogle County,Illinois,IL,25614,25714,42.4,51328,50.097412718204495,42.0426469030614,-89.32064357576418,79.64018583,48.89856323,5167.0,58812.0,758.57,0.1006663029925187,67.66415755961876
17143,Peoria County,Illinois,IL,89387,95076,37.2,184463,51.54204366187257,40.78804569197607,-89.75996273885721,78.22309534,51.93440315,27254.0,52380.0,619.21,0.14774778681903689,297.9005507017005
17147,Piatt County,Illinois,IL,8080,8347,43.0,16427,50.812686430876,40.010340074684684,-88.59110643386009,79.39691232,49.53752026,1115.0,65797.0,439.2,0.0678760577098679,37.40209471766849
17161,Rock Island County,Illinois,IL,71596,73679,40.1,145275,50.71691619342626,41.467320196285186,-90.56737501858306,78.75664467,51.08472581,21769.0,50952.0,427.64,0.1498468421958355,339.7133102609672
17167,Sangamon County,Illinois,IL,94876,102785,40.0,197661,52.00064757337057,39.758166181980506,-89.65887689980788,78.33150749,51.61916111,26767.0,55090.0,868.3,0.13541872195324317,227.64136819071751
17177,Stephenson County,Illinois,IL,21986,23447,45.1,45433,51.60786212664804,42.35172178233953,-89.6623640191516,79.67764081,48.19041819,6916.0,45863.0,564.52,0.1522241542491141,80.48076241762914
17183,Vermilion County,Illinois,IL,38967,39440,40.3,78407,50.30163123190532,40.183416435897776,-87.73281471248909,76.19212785,57.42358078,15183.0,45247.0,898.37,0.19364342469422374,87.27695715573762
17195,Whiteside County,Illinois,IL,27799,28597,43.2,56396,50.707496985601814,41.75627873396718,-89.91409401353252,78.91567905,50.15846849,6586.0,51567.0,684.25,0.11678133200936236,82.4201680672269
17197,Will County,Illinois,IL,341816,346881,37.6,688697,50.36772339650093,41.44504270382514,-87.97864242148339,79.93640142,49.43685988,48627.0,81640.0,836.91,0.07060724818025925,822.9044939121292
18005,Bartholomew County,Indiana,IN,41150,40743,37.7,81893,49.75150501263843,39.20595128349802,-85.89759073009328,77.80224335,55.19638031,9336.0,59765.0,406.91,0.11400241778906622,201.25580595217613
18009,Blackford County,Indiana,IN,6037,6092,44.3,12129,50.226729326407785,40.47363682229351,-85.32482248007156,76.81141714,56.4442576,1530.0,42588.0,165.08,0.126143952510512,73.47346740974072
18029,Dearborn County,Indiana,IN,24764,24737,42.7,49501,49.97272782368032,39.14517193438369,-84.97324273786923,78.36759532,53.86910623,3988.0,63876.0,305.03,0.08056402900951495,162.28239845261123
18033,DeKalb County,Indiana,IN,21307,21397,39.1,42704,50.105376545522674,41.39757021471445,-84.99905942488384,77.82523483,54.65001135,3780.0,52599.0,362.82,0.08851629823904084,117.70023703213715
18037,Dubois County,Indiana,IN,21048,21370,40.4,42418,50.379555848932064,38.36427303649641,-86.87981142676438,78.93023999,51.97497375,2730.0,62852.0,427.27,0.06435947003630534,99.27680389449294
18039,Elkhart County,Indiana,IN,100713,102891,35.5,203604,50.53486179053457,41.59739348654993,-85.85873470418164,78.78482437,50.70568499,26390.0,54582.0,463.17,0.1296143494233905,439.58805622125783
18045,Fountain County,Indiana,IN,8251,8235,43.1,16486,49.95147397792066,40.12089839023189,-87.24197108216225,77.25176466,56.47162312,2145.0,43571.0,395.66,0.1301103967002305,41.66708790375575
18063,Hendricks County,Indiana,IN,80391,80549,37.7,160940,50.049086616130225,39.76951990450325,-86.50997023079225,79.97024886,50.98445896,9008.0,78464.0,406.91,0.055971169379893125,395.51743628812267
18069,Huntington County,Indiana,IN,17875,18503,40.7,36378,50.86315905217439,40.82921962480348,-85.48813053437355,78.17689576,53.57879753,3880.0,50138.0,382.65,0.10665787014129419,95.0686005488044
18075,Jay County,Indiana,IN,10398,10595,40.0,20993,50.46920402038776,40.437957401618746,-85.00570481094736,77.25203154,55.01052691,2878.0,46949.0,383.91,0.13709331681989234,54.68208694746164
18079,Jennings County,Indiana,IN,13925,13802,39.7,27727,49.778194539618426,38.996923297558006,-85.62803435540019,75.52541168,59.57143452,3478.0,50425.0,376.58,0.1254372993832726,73.6284454830315
18085,Kosciusko County,Indiana,IN,39264,39542,38.0,78806,50.176382508946006,41.244071507325465,-85.86071564344066,78.52498866,51.77859978,7985.0,56010.0,531.38,0.10132477222546507,148.3044149196432
18087,LaGrange County,Indiana,IN,19752,19190,31.4,38942,49.27841405166657,41.64262145134996,-85.42649136538262,79.74400966,48.55472547,3851.0,60402.0,379.62,0.09889065790149452,102.58152889731836
18091,LaPorte County,Indiana,IN,57068,53484,40.4,110552,48.37904334611766,41.5459875384831,-86.73996089293483,76.93231490000001,55.41042882,16218.0,52763.0,598.3,0.1467001953831681,184.77686779207755
18121,Parke County,Indiana,IN,8211,8785,41.8,16996,51.68863261943986,39.773634640698596,-87.2063791149648,78.02402538,52.34065025,2497.0,47599.0,444.66,0.1469169216286185,38.22246210587865
18127,Porter County,Indiana,IN,83212,84829,39.5,168041,50.48113258073923,41.46054623322723,-87.06725879780336,78.72011964,53.18149483,12749.0,67302.0,418.15,0.07586838926214436,401.86775080712664
18129,Posey County,Indiana,IN,12787,12802,42.3,25589,50.02930946891242,38.02181793172545,-87.86845961108344,78.9251881,51.53582303,2192.0,61619.0,409.57,0.08566180780804251,62.477720536172086
18149,Starke County,Indiana,IN,11302,11639,41.6,22941,50.73449282943202,41.280937413569475,-86.6476276335961,74.66296194,60.89024895,3694.0,46602.0,309.13,0.16102175144937012,74.21149678128943
18155,Switzerland County,Indiana,IN,5504,5124,40.1,10628,48.21226947685359,38.826197480423325,-85.03700185185556,76.50264517,58.00632287,1780.0,45337.0,220.63,0.16748212269476853,48.17114626297421
18157,Tippecanoe County,Indiana,IN,96866,92428,28.0,189294,48.82774942681754,40.38861981090344,-86.89405932795191,79.13734964,52.01345634,30478.0,51385.0,499.81,0.1610088011241772,378.731918128889
18163,Vanderburgh County,Indiana,IN,87676,93637,38.1,181313,51.64384241615328,38.02496059839478,-87.58581620626455,77.1802845,54.78507435,30462.0,46750.0,233.48,0.16800780969924936,776.5675860887443
18165,Vermillion County,Indiana,IN,7809,7751,43.1,15560,49.813624678663246,39.853826991064,-87.46398211720656,75.8296942,60.78001301,2039.0,51425.0,256.88,0.13104113110539845,60.57303020865774
18167,Vigo County,Indiana,IN,54705,52988,36.2,107693,49.202826553257864,39.430635579112206,-87.3899739641556,76.44592779,57.67348440000001,17567.0,43560.0,403.31,0.16312109422153714,267.02288562148226
18169,Wabash County,Indiana,IN,15365,16266,42.2,31631,51.42423571812462,40.845643697598966,-85.79399878786931,77.87405716,52.50054923,3428.0,51561.0,412.43,0.10837469570990484,76.69422689911015
18173,Warrick County,Indiana,IN,30409,31519,40.9,61928,50.89620204107996,38.092173649595594,-87.27208736549616,79.27053599999999,52.39412178,4615.0,65809.0,384.82,0.07452202557809069,160.9271867366561
19005,Allamakee County,Iowa,IA,7045,6835,44.8,13880,49.24351585014409,43.28428239914959,-91.378053325693,79.89877408,48.85384051,1786.0,49439.0,639.08,0.12867435158501442,21.718720660950115
19007,Appanoose County,Iowa,IA,6154,6356,45.4,12510,50.80735411670664,40.7431700905196,-92.8686187703517,78.32686352,50.406389399999995,2304.0,39124.0,497.29,0.1841726618705036,25.156347402923846
19009,Audubon County,Iowa,IA,2758,2879,49.0,5637,51.073265921589496,41.684602025452975,-94.90581787645112,80.53642112,44.72446778,616.0,49560.0,442.96,0.10927798474365798,12.725754018421528
19013,Black Hawk County,Iowa,IA,65309,67700,34.9,133009,50.898811358629864,42.47009068616707,-92.30882457369528,79.42023437,49.807688899999995,20556.0,50887.0,565.77,0.15454593298197866,235.09376601799318
19017,Bremer County,Iowa,IA,12274,12508,39.7,24782,50.47211685901058,42.77458652030272,-92.3180539317849,82.14028343,41.78279488,1557.0,65733.0,435.48,0.06282785892986845,56.9073206576651
19021,Buena Vista County,Iowa,IA,10238,10022,35.2,20260,49.46692991115498,42.73549598809982,-95.15113459975643,80.87749186,44.32286751,2338.0,52344.0,574.92,0.11539980256663376,35.239685521463855
19033,Cerro Gordo County,Iowa,IA,20850,22134,44.5,42984,51.49357900614182,43.08155752775132,-93.26081363601429,79.23473055,49.40073781,4907.0,53109.0,568.31,0.11415875674669644,75.6347767943552
19043,Clayton County,Iowa,IA,8900,8772,47.1,17672,49.637845178813954,42.844720168206074,-91.3414292275032,80.50395658,45.87295808,1709.0,53809.0,778.54,0.09670665459483929,22.698897937164435
19057,Des Moines County,Iowa,IA,19313,20287,42.6,39600,51.229797979797965,40.92317786385232,-91.18147573534729,79.15250409,49.7441779,6300.0,48991.0,416.12,0.1590909090909091,95.16485629145438
19061,Dubuque County,Iowa,IA,47744,49058,38.5,96802,50.67870498543419,42.46882113653326,-90.88245688962141,80.02523811,49.61194725,9738.0,59403.0,608.31,0.10059709510134088,159.13267906166266
19077,Guthrie County,Iowa,IA,5335,5339,45.6,10674,50.01873711823122,41.683746110470366,-94.50106211564243,80.07380743,47.5652374,1036.0,55531.0,590.62,0.09705827243769909,18.072533947377334
19093,Ida County,Iowa,IA,3457,3459,44.5,6916,50.01445922498554,42.386898436170405,-95.5134974299888,79.514907,48.36291426,696.0,53300.0,431.51,0.1006362058993638,16.02743852981391
19107,Keokuk County,Iowa,IA,5202,4998,43.9,10200,49.0,41.33645750324779,-92.17863866653911,80.46159627,44.59671315,1199.0,49898.0,579.18,0.11754901960784314,17.611105355847926
19109,Kossuth County,Iowa,IA,7547,7528,45.5,15075,49.936981757877284,43.20419580509119,-94.20671661025328,81.38116492,42.86132859,1696.0,55129.0,972.72,0.11250414593698176,15.497779422649888
19123,Mahaska County,Iowa,IA,11252,10956,39.7,22208,49.33357348703171,41.33521489341655,-92.64091015653412,80.12277605,46.58150111,2640.0,51839.0,570.86,0.11887608069164265,38.90270819465368
19133,Monona County,Iowa,IA,4283,4513,46.5,8796,51.307412460209186,42.051642629809066,-95.95990054023731,77.79974615,51.92619948,1111.0,47371.0,694.07,0.12630741246020918,12.673073321134755
19139,Muscatine County,Iowa,IA,21476,21474,38.1,42950,49.9976717112922,41.48392136061979,-91.11270702657451,78.95599643,51.94194708,4540.0,57583.0,437.47,0.10570430733410943,98.17816078816833
19141,O'Brien County,Iowa,IA,6962,6949,42.4,13911,49.95327438717562,43.08375704082128,-95.62491378713388,80.26457146,46.46028538,1381.0,50607.0,573.04,0.09927395586226727,24.275792265810416
19147,Palo Alto County,Iowa,IA,4512,4543,41.8,9055,50.171176145775824,43.08208883284721,-94.6781319209072,79.51713909,47.95718645,899.0,50642.0,563.84,0.0992821645499724,16.059520431328036
19155,Pottawattamie County,Iowa,IA,45923,47580,39.5,93503,50.886067826700746,41.336622830927375,-95.54229497238848,77.86226212,53.3346503,9395.0,55442.0,950.28,0.10047805952750179,98.39520983289137
19157,Poweshiek County,Iowa,IA,8990,9615,40.7,18605,51.67965600644988,41.68644275248715,-92.53145279349349,79.83363825,48.66056078,1863.0,52408.0,584.93,0.10013437248051599,31.807224796129454
19159,Ringgold County,Iowa,IA,2432,2552,44.9,4984,51.20385232744783,40.73516518832041,-94.24398812347559,79.62016377,48.37054555,696.0,47638.0,535.5,0.13964686998394862,9.30718954248366
19161,Sac County,Iowa,IA,4818,5050,46.2,9868,51.175516822051065,42.38623878809418,-95.10535234292169,79.81746159,46.90388478,1124.0,54660.0,575.01,0.11390352655046615,17.161440670597035
19169,Story County,Iowa,IA,50484,46438,26.3,96922,47.91275458616207,42.03623117596426,-93.46503839186238,82.11500111,42.53434329,16340.0,55561.0,572.82,0.16858917480035493,169.2014943612304
19171,Tama County,Iowa,IA,8497,8639,42.8,17136,50.414332399626524,42.079810470354296,-92.53255420033248,79.58087420000001,48.55650245,2063.0,50468.0,721.01,0.12038982259570495,23.766660656578967
19179,Wapello County,Iowa,IA,17403,17912,39.3,35315,50.72065694464109,41.03058136685314,-92.40946505100024,77.66965768,54.24421172,5634.0,41312.0,431.83,0.1595356080985417,81.7798670773221
19191,Winneshiek County,Iowa,IA,10156,10245,41.3,20401,50.21812656242341,43.2906200220828,-91.84367475188198,82.62077706,39.53572926,1709.0,62115.0,689.87,0.08377040341159747,29.572238247785815
19193,Woodbury County,Iowa,IA,50496,51902,35.7,102398,50.686536846422776,42.389703624789284,-96.04477464459801,78.3538478,52.68530175,13318.0,51877.0,872.83,0.13006113400652355,117.3172324507636
20007,Barber County,Kansas,KS,2356,2377,43.8,4733,50.22184660891613,37.228859628093545,-98.68482281643057,77.6314656,53.07050437,559.0,47540.0,1134.07,0.11810690893724911,4.173463719170774
20029,Cloud County,Kansas,KS,4523,4537,41.0,9060,50.077262693156726,39.48029327799824,-97.6492578730064,78.51648063,50.17627938,1142.0,42431.0,715.34,0.1260485651214128,12.665306008331703
20031,Coffey County,Kansas,KS,4195,4101,44.0,8296,49.433461909353895,38.236863505594116,-95.73410480030655,77.87543263,53.14123537,861.0,57224.0,626.95,0.10378495660559306,13.232315176648855
20035,Cowley County,Kansas,KS,17915,17676,38.8,35591,49.664240959793204,37.23770918886446,-96.83752845410318,76.46871183,56.40697721,4706.0,45907.0,1125.75,0.13222443876260853,31.61536753275594
20043,Doniphan County,Kansas,KS,3960,3776,41.3,7736,48.810754912099284,39.78806040002374,-95.14679868969306,79.00723678,50.26427405,989.0,47320.0,393.41,0.12784384694932782,19.663963803665386
20053,Ellsworth County,Kansas,KS,3654,2639,42.3,6293,41.935483870967744,38.69663853398439,-98.20476048074009,78.87661440000001,49.90765593,545.0,50403.0,715.85,0.08660416335610996,8.79094782426486
20055,Finney County,Kansas,KS,18940,18017,30.5,36957,48.751251454392936,38.044282109415576,-100.73699850189043,79.19308165,48.09783642,5155.0,51812.0,1301.97,0.1394864301756095,28.385446669278092
20057,Ford County,Kansas,KS,17896,16588,31.9,34484,48.1034682751421,37.69171750246171,-99.88795653621145,78.50327836,51.14753531,4453.0,47175.0,1098.27,0.12913235123535552,31.39847214255147
20061,Geary County,Kansas,KS,18540,16355,26.1,34895,46.869178965467825,39.00241626170008,-96.7525303867292,76.81633517,53.04728238,4031.0,46326.0,384.62,0.11551798251898553,90.72591128906453
20063,Gove County,Kansas,KS,1298,1321,48.1,2619,50.439098892707136,38.91609173974979,-100.48296674923587,79.63063282,46.80711734,264.0,51445.0,1071.67,0.10080183276059565,2.443849319286721
20079,Harvey County,Kansas,KS,17200,17355,39.5,34555,50.224280133121106,38.04321375981529,-97.4272328635256,79.17249092,49.21657412,3528.0,56848.0,539.75,0.10209810447113297,64.0203798054655
20083,Hodgeman County,Kansas,KS,941,901,49.1,1842,48.914223669924,38.08749316612595,-99.8979261293054,80.04679419,44.30893953,183.0,51244.0,859.99,0.0993485342019544,2.141885370760125
20089,Jewell County,Kansas,KS,1482,1434,52.6,2916,49.17695473251029,39.78473318645306,-98.21833954684782,79.98993721,46.00749572,363.0,40940.0,909.78,0.12448559670781893,3.205170480775572
20093,Kearny County,Kansas,KS,1934,1998,34.4,3932,50.81383519837232,38.00023249997622,-101.3198829556369,77.66487109,51.6459757,444.0,59254.0,870.54,0.11291963377416073,4.516736738116571
20095,Kingman County,Kansas,KS,3749,3721,45.5,7470,49.81258366800535,37.558898379636304,-98.13633586716959,78.62980751,50.39920301,778.0,59721.0,863.36,0.10414993306559571,8.652242401779095
20099,Labette County,Kansas,KS,10070,10297,40.6,20367,50.55727402170177,37.19130785318974,-95.29757070000281,76.26836817,55.49631377,4161.0,41103.0,645.3,0.20430107526881722,31.562064156206418
20103,Leavenworth County,Kansas,KS,42933,37109,37.6,80042,46.36190999725145,39.19930866713226,-95.03798734274791,78.91877151,52.27822514,6464.0,67558.0,462.83,0.08075760225881412,172.94038847957134
20133,Neosho County,Kansas,KS,7923,8202,40.1,16125,50.865116279069774,37.558495432740564,-95.30679410545143,77.3216061,53.50961303,2552.0,42441.0,571.47,0.15826356589147286,28.216704288939052
20135,Ness County,Kansas,KS,1493,1462,48.7,2955,49.47546531302878,38.47942841040646,-99.9161527727777,79.38418786,46.97248305,325.0,46439.0,1074.75,0.10998307952622674,2.749476622470342
20137,Norton County,Kansas,KS,3036,2450,43.2,5486,44.65913233685745,39.78438554894026,-99.903485411262,79.45793569,47.31943427,640.0,45845.0,878.13,0.11666059059423989,6.247366563037364
20141,Osborne County,Kansas,KS,1807,1796,46.7,3603,49.8473494310297,39.35033034228786,-98.76794728456049,79.24204598,47.08809765,501.0,41967.0,892.5,0.13905079100749376,4.036974789915966
20151,Pratt County,Kansas,KS,4785,4797,38.5,9582,50.06261740763932,37.647731780450094,-98.73962276229315,78.39144874,49.68512657,1048.0,51419.0,735.05,0.10937173867668545,13.035847901503299
20153,Rawlins County,Kansas,KS,1286,1223,49.2,2509,48.74451972897569,39.78518765694615,-101.07585048736065,80.14288575,44.41402787,310.0,47377.0,1069.42,0.12355520127540853,2.3461315479418747
20155,Reno County,Kansas,KS,31775,31326,40.4,63101,49.64422116923662,37.95295884789992,-98.08598674367596,78.40361582,50.52569303,8844.0,46208.0,1255.35,0.1401562574285669,50.265662962520416
20157,Republic County,Kansas,KS,2271,2415,51.1,4686,51.53649167733675,39.82776407122262,-97.65061755377931,79.53043167,47.56141911,524.0,43921.0,717.37,0.11182244985061887,6.532193986366868
20161,Riley County,Kansas,KS,39909,35387,25.1,75296,46.99718444538887,39.29656769317891,-96.73515678683286,81.46338239,44.6085417,11709.0,49901.0,609.77,0.15550626859328517,123.48262459615921
20163,Rooks County,Kansas,KS,2469,2649,43.8,5118,51.75849941383353,39.35022578085977,-99.32501191657444,78.51311903,49.82413677,592.0,45268.0,890.53,0.11567018366549434,5.7471393439861655
20165,Rush County,Kansas,KS,1521,1581,47.6,3102,50.96711798839458,38.523127903204866,-99.3091530075558,79.28619305,47.37317575,360.0,45281.0,717.76,0.11605415860735009,4.321778867588052
20173,Sedgwick County,Kansas,KS,253201,258863,35.2,512064,50.552860579927504,37.68476831641511,-97.46098502204742,77.64533985,52.8370951,75334.0,52612.0,997.51,0.14711832895888013,513.3422221331115
20177,Shawnee County,Kansas,KS,86327,91957,38.9,178284,51.578941464180744,39.04151430752982,-95.75652929631045,77.74517835,52.56786957,18931.0,55387.0,544.02,0.10618451459469161,327.7158927980589
20195,Trego County,Kansas,KS,1450,1408,49.2,2858,49.26522043386985,38.914309508875114,-99.87283476983828,78.66056228,50.20939947,309.0,46756.0,889.48,0.10811756473058083,3.21311327966902
20197,Wabaunsee County,Kansas,KS,3497,3391,43.8,6888,49.23054587688734,38.953269933587535,-96.20499592102692,79.10112358,47.95385924,549.0,61502.0,794.3,0.07970383275261324,8.671786478660456
20199,Wallace County,Kansas,KS,790,785,43.1,1575,49.84126984126985,38.916681207931404,-101.76361597256924,79.47315893,47.03956449,179.0,47844.0,913.65,0.11365079365079366,1.7238548678377934
20207,Woodson County,Kansas,KS,1583,1587,48.3,3170,50.06309148264985,37.88669687608426,-95.74013435622689,76.91181132,52.76049867,571.0,35417.0,497.82,0.1801261829652997,6.367763448636054
20209,Wyandotte County,Kansas,KS,81294,83051,33.7,164345,50.53454622896954,39.11461543591877,-94.76455164790414,75.34751568,56.65211453,31432.0,43396.0,151.6,0.1912561988499802,1084.0699208443273
21007,Ballard County,Kentucky,KY,3992,4098,43.3,8090,50.655129789864034,37.05848196169252,-88.99925588833919,75.74200411,58.64451739,1277.0,45074.0,246.66,0.15784919653893695,32.798183734695534
21009,Barren County,Kentucky,KY,21165,22515,40.3,43680,51.54532967032966,36.965585922820175,-85.9336621612554,76.32893577,57.76497835,9397.0,40274.0,487.54,0.2151327838827839,89.59264880830291
21017,Bourbon County,Kentucky,KY,9670,10474,42.1,20144,51.99563145353454,38.20673452494953,-84.21715057392247,76.95333227,54.35891181,3466.0,46231.0,289.72,0.17206115965051627,69.52920060748308
21021,Boyle County,Kentucky,KY,14903,15010,40.3,29913,50.178852004145355,37.62438277360131,-84.8668421538937,77.02275654,56.07042685,4562.0,44834.0,180.17,0.15250894260020728,166.02653049897322
21023,Bracken County,Kentucky,KY,4183,4123,40.7,8306,49.63881531423068,38.68879489397331,-84.09014459480437,75.19422831,60.59216494,1386.0,47182.0,205.61,0.1668673248254274,40.39686785662176
21025,Breathitt County,Kentucky,KY,6577,6539,41.6,13116,49.855138761817635,37.521615669899866,-83.32406324598597,70.22346976,70.34476999,4466.0,26659.0,492.41,0.34050015248551385,26.63633963566946
21027,Breckinridge County,Kentucky,KY,10088,9992,42.9,20080,49.760956175298794,37.7733893799679,-86.42933749903695,76.19643986,58.02376209,3386.0,43053.0,567.17,0.16862549800796814,35.403847171042194
21029,Bullitt County,Kentucky,KY,39627,39839,40.1,79466,50.13339038079179,37.97007363413742,-85.69586025760096,78.55547992,53.18418774,8144.0,63570.0,297.02,0.1024840812422923,267.5442731129217
21035,Calloway County,Kentucky,KY,18818,19958,35.3,38776,51.46998143181349,36.62103516573015,-88.27224810688963,77.41613612,55.8812829,7430.0,39438.0,385.02,0.1916133690942851,100.71165134278739
21039,Carlisle County,Kentucky,KY,2344,2497,42.9,4841,51.58025201404668,36.85320008487635,-88.9709835374767,76.62492406,55.12390351,693.0,45362.0,189.43,0.14315224127246437,25.555614211054213
21045,Casey County,Kentucky,KY,7738,8058,42.9,15796,51.012914661939725,37.32232537008903,-84.92832120159906,75.14456015,59.12660282,4260.0,29417.0,444.23,0.26968852874145355,35.558156810661146
21055,Crittenden County,Kentucky,KY,4593,4490,43.6,9083,49.43300671584278,37.35272341005486,-88.09719712944563,75.13826429,61.5614647,1660.0,40656.0,359.95,0.18275900033028736,25.234060286150854
21061,Edmonson County,Kentucky,KY,6093,6029,43.8,12122,49.73601715888467,37.20879862721897,-86.23842222167913,77.58986359,53.50889802,2668.0,38395.0,302.88,0.22009569377990432,40.02245113576334
21063,Elliott County,Kentucky,KY,4285,3232,41.9,7517,42.995876014367425,38.1179005702399,-83.09761513720926,75.59771761,57.59660804,1998.0,33335.0,234.32,0.26579752560862047,32.080061454421305
21065,Estill County,Kentucky,KY,7104,7209,43.7,14313,50.36679941312094,37.69244422727429,-83.96431121402226,73.22910684,63.68178744,3852.0,33839.0,253.08,0.26912596939844896,56.55523944997629
21069,Fleming County,Kentucky,KY,7146,7333,40.9,14479,50.645762828924646,38.37011818128264,-83.69665601093851,74.47044047,63.00987152,3066.0,38860.0,348.54,0.21175495545272463,41.54186033166925
21079,Garrard County,Kentucky,KY,8475,8853,42.7,17328,51.090720221606645,37.63959984067747,-84.53766513880791,77.56030652,54.64112715,2784.0,46967.0,230.08,0.16066481994459833,75.31293463143254
21083,Graves County,Kentucky,KY,18348,18946,40.3,37294,50.80173754491339,36.72310321811679,-88.65120022075081,76.06652341,57.73525804,7571.0,41705.0,551.74,0.2030085268407787,67.59343168883895
21089,Greenup County,Kentucky,KY,17411,18354,43.4,35765,51.31832797427652,38.545692923388145,-82.92234465358831,75.97939740000001,59.74910889,6131.0,46815.0,344.4,0.17142457710051726,103.8472706155633
21099,Hart County,Kentucky,KY,9166,9461,40.2,18627,50.791861276641434,37.29993003213643,-85.88469125715005,75.48012462,59.92486768,3998.0,36628.0,412.09,0.21463467010253934,45.201290980125705
21113,Jessamine County,Kentucky,KY,25479,26943,37.9,52422,51.396360306741435,37.8720714791172,-84.58095197831827,77.54193937,55.31521744,8014.0,55047.0,172.12,0.1528747472435237,304.56658145479895
21117,Kenton County,Kentucky,KY,81430,83258,37.0,164688,50.554988827358386,38.93339565485879,-84.53331131636233,77.05519881,56.00378305,20493.0,61798.0,160.25,0.12443529583211892,1027.6942277691107
21119,Knott County,Kentucky,KY,7693,7820,42.6,15513,50.4093341068781,37.354047193610526,-82.9541413656237,72.97737044,62.96023822,5659.0,29786.0,351.52,0.3647908206020757,44.13120163859809
21123,Larue County,Kentucky,KY,7027,7129,40.8,14156,50.360271263068675,37.5457934635401,-85.69792829735577,76.68959587,55.50527076,2312.0,44522.0,261.52,0.16332297259112744,54.129703273172225
21125,Laurel County,Kentucky,KY,29412,30768,39.6,60180,51.12662013958126,37.110673620190184,-84.11780203009789,75.48737036,58.97456645,13782.0,38323.0,433.95,0.22901296111665004,138.67957137919115
21131,Leslie County,Kentucky,KY,5067,5405,41.8,10472,51.613827349121465,37.094068619347226,-83.3811275508591,71.16621197,68.78061083,3265.0,28595.0,400.84,0.31178380443086323,26.125137211855105
21133,Letcher County,Kentucky,KY,11087,11589,42.2,22676,51.106897159992954,37.12117501063009,-82.85531290041101,72.35257444,66.75880596,7113.0,29308.0,337.91,0.3136796613159287,67.10662602468112
21145,McCracken County,Kentucky,KY,31193,34091,42.1,65284,52.21953311684333,37.05395743324653,-88.71265236936874,76.41478425,56.19465372,11962.0,42936.0,248.74,0.18323019422829484,262.4587923132588
21147,McCreary County,Kentucky,KY,9613,8022,40.0,17635,45.48908420754182,36.7371206967089,-84.48422152862756,72.85086198,66.12162052,6168.0,25087.0,426.8,0.3497590019846895,41.319119025304595
21153,Magoffin County,Kentucky,KY,6348,6318,42.1,12666,49.88157271435339,37.706468793711466,-83.06491970911979,72.59534808,65.91161855,3993.0,28996.0,308.44,0.3152534343912837,41.06471274802231
21165,Menifee County,Kentucky,KY,3421,2984,46.2,6405,46.58860265417643,37.94138815475975,-83.59886644921973,74.79279752,60.01298387,1513.0,33734.0,203.59,0.23622170179547228,31.460287833390638
21169,Metcalfe County,Kentucky,KY,4923,5081,43.4,10004,50.78968412634946,36.99053101751967,-85.62922747620969,74.68642464,62.21651749,2244.0,33562.0,289.65,0.22431027588964414,34.5382358018298
21177,Muhlenberg County,Kentucky,KY,15286,15795,42.4,31081,50.818828223030145,37.21578974706442,-87.14203054728935,75.03497271,60.41584159,5732.0,42098.0,467.08,0.18442135066439302,66.5432045902201
21187,Owen County,Kentucky,KY,5304,5437,41.2,10741,50.619122986686534,38.51964952626553,-84.82810333892283,76.62087019,56.07795755,1923.0,46358.0,351.1,0.17903360953356298,30.59242381088009
21189,Owsley County,Kentucky,KY,1947,2516,42.5,4463,56.3746358951378,37.419199638938686,-83.68309732468299,70.20681692,70.11568769,1980.0,23115.0,197.41,0.4436477705579207,22.60777062965402
21203,Rockcastle County,Kentucky,KY,8170,8657,42.5,16827,51.447079099066976,37.365058270301425,-84.31600989437104,74.16502689,62.57762544,3991.0,35567.0,316.55,0.2371783443275688,53.15747907123677
21215,Spencer County,Kentucky,KY,9277,8969,41.6,18246,49.15597939274362,38.03252017215665,-85.32782653951507,77.64437530000001,55.23342965,1601.0,71156.0,186.68,0.0877452592349008,97.73944718234411
21221,Trigg County,Kentucky,KY,7077,7267,45.8,14344,50.66229782487451,36.8063586758102,-87.87335278270689,76.28976352,57.3617192,2046.0,37965.0,441.43,0.14263803680981596,32.49439322202841
21223,Trimble County,Kentucky,KY,4238,4399,43.0,8637,50.93203658677782,38.6129971059655,-85.33754103060926,76.31956167,57.57305049,1263.0,51827.0,151.65,0.14623133032302882,56.953511374876356
21235,Whitley County,Kentucky,KY,17668,18421,36.8,36089,51.0432541771731,36.758096820331176,-84.14517967451198,72.58806022,66.21900620000001,10026.0,31985.0,437.83,0.27781318407270916,82.42696937167393
21237,Wolfe County,Kentucky,KY,3596,3627,41.6,7223,50.21459227467812,37.73931922500845,-83.49316615527576,71.14749579,68.75330086,2252.0,28443.0,222.17,0.31178180811297246,32.51114011792772
21239,Woodford County,Kentucky,KY,12564,13533,42.4,26097,51.85653523393493,38.04238650871746,-84.74360193801229,78.17081263,54.16174165,3099.0,58712.0,188.78,0.11874928152661225,138.2402796906452
22001,Acadia Parish,Louisiana,LA,30491,32077,36.2,62568,51.26742104590206,30.290536480532676,-92.41198414558079,74.22621515,60.25128262,14228.0,40218.0,655.12,0.22740058816008182,95.5061668091342
22003,Allen Parish,Louisiana,LA,14638,11023,38.3,25661,42.956237091305866,30.652918535913077,-92.82791859549394,77.13070479999999,53.76468626,4588.0,41584.0,761.85,0.17879272047075329,33.682483428496425
22005,Ascension Parish,Louisiana,LA,59998,61178,35.4,121176,50.48689509473822,30.203544323210544,-90.91130991020077,77.13884190000002,54.88294684,12864.0,74212.0,289.98,0.10615963557140028,417.877094972067
22007,Assumption Parish,Louisiana,LA,11005,11709,40.5,22714,51.54970502773621,29.900782621804474,-91.06258774626066,76.83997482,51.95206082,4761.0,45847.0,338.66,0.20960641014352382,67.07021791767554
22009,Avoyelles Parish,Louisiana,LA,20607,20275,37.9,40882,49.593953329093495,31.076237716704718,-92.00138567599062,74.03109431,60.66496731,9758.0,34997.0,832.43,0.23868695269311677,49.111637014523744
22011,Beauregard Parish,Louisiana,LA,18712,18057,37.6,36769,49.109304033288915,30.648458659038976,-93.34336855242913,75.09076322,60.22899475,5243.0,49436.0,1157.34,0.1425929451440072,31.77026630030933
22013,Bienville Parish,Louisiana,LA,6523,7145,41.6,13668,52.27538776704712,32.34717072866756,-93.05597977046476,73.89678299,60.16464138,3171.0,33887.0,811.27,0.2320017559262511,16.84765860934091
22015,Bossier Parish,Louisiana,LA,62349,63782,35.1,126131,50.56806019138832,32.67892598931742,-93.60504359203878,77.14291074,54.93946193,20555.0,50048.0,840.06,0.16296548826220358,150.1452277218294
22017,Caddo Parish,Louisiana,LA,117828,130533,37.4,248361,52.557768731805716,32.580070916805504,-93.88232880160378,74.89201758,57.33251287,63909.0,38414.0,878.54,0.25732300965127375,282.697429826758
22019,Calcasieu Parish,Louisiana,LA,97603,102579,36.0,200182,51.242868989219815,30.22927163338553,-93.35801271230395,75.13466247,59.51077107,39035.0,47052.0,1063.66,0.194997552227473,188.20111689825694
22021,Caldwell Parish,Louisiana,LA,5277,4719,40.1,9996,47.208883553421366,32.092309888809716,-92.1165589241765,73.0598682,63.1988188,2144.0,35428.0,529.43,0.2144857943177271,18.880682998696713
22023,Cameron Parish,Louisiana,LA,3357,3511,44.5,6868,51.1211415259173,29.875443198703913,-93.19381789502044,78.15403574,50.548948200000005,841.0,52479.0,1284.89,0.1224519510774607,5.345204647868688
22025,Catahoula Parish,Louisiana,LA,5214,4679,38.1,9893,47.29606792681695,31.666179846912602,-91.84706123944595,73.17488553,63.02981899,2485.0,33154.0,708.03,0.25118770848074395,13.972571783681483
22027,Claiborne Parish,Louisiana,LA,9205,6948,42.2,16153,43.01368166903981,32.82263508134525,-92.99575993474207,75.47996577,54.76259984,4593.0,34228.0,754.88,0.2843434656101034,21.398103009749896
22029,Concordia Parish,Louisiana,LA,10210,9811,37.8,20021,49.00354627640977,31.44585575886444,-91.64006957891719,73.93717679,60.78325376,5239.0,32685.0,696.92,0.2616752409969532,28.72783102795156
22031,De Soto Parish,Louisiana,LA,13172,14044,39.7,27216,51.60199882422105,32.05543534929249,-93.73724615963785,74.857786,57.98695604,5669.0,43325.0,875.58,0.2082965902410347,31.08339614883848
22033,East Baton Rouge Parish,Louisiana,LA,212778,231316,33.7,444094,52.08717073412386,30.538251256349,-91.09560315466163,76.3456314,54.82869709,86888.0,50451.0,455.37,0.19565227181632716,975.2377187781365
22035,East Carroll Parish,Louisiana,LA,4373,2852,33.0,7225,39.47404844290657,32.732551454914926,-91.23505403065262,72.17107846,63.66088142,2686.0,25810.0,420.7,0.37176470588235294,17.173758022343712
22037,East Feliciana Parish,Louisiana,LA,10715,8784,43.0,19499,45.04846402379609,30.845105450175826,-91.04552428900487,72.64312372,65.3012799,3459.0,46172.0,453.41,0.1773937124980768,43.005227057188854
22039,Evangeline Parish,Louisiana,LA,17142,16494,35.4,33636,49.03674634320371,30.72894984480572,-92.40590574867468,74.04705043,61.95348714,9463.0,34440.0,662.38,0.2813354738970151,50.780518735469066
22041,Franklin Parish,Louisiana,LA,9981,10341,38.5,20322,50.88573959255979,32.133213691650724,-91.6737718780324,73.62066645,63.02718696,5728.0,31873.0,624.59,0.2818620214545812,32.53654397284618
22043,Grant Parish,Louisiana,LA,12658,9690,38.3,22348,43.359584750313225,31.599697402253494,-92.55950489391508,74.75407361,60.65763002,4160.0,42948.0,643.03,0.18614641131197424,34.75421053450072
22045,Iberia Parish,Louisiana,LA,35508,37183,36.5,72691,51.15213712839278,29.896528709408496,-91.72998354230688,75.44097679,58.27548513,16885.0,41604.0,574.11,0.2322846019452202,126.61510860288098
22047,Iberville Parish,Louisiana,LA,16661,16295,38.3,32956,49.444714164340326,30.258489962809854,-91.34933844106884,74.91877725,57.82248311,6615.0,41679.0,618.63,0.20072217502124043,53.27255386903319
22049,Jackson Parish,Louisiana,LA,8080,7846,40.3,15926,49.26535225417556,32.30205969229333,-92.55778384410247,75.06861479,59.188857299999995,3122.0,41192.0,569.18,0.1960316463644355,27.980603675462948
22051,Jefferson Parish,Louisiana,LA,211175,224125,39.2,435300,51.48747989892029,29.787167802757157,-90.12738938670178,77.28392588,53.06718619,69610.0,49681.0,295.63,0.15991270388237996,1472.4486689442886
22053,Jefferson Davis Parish,Louisiana,LA,15590,15877,37.7,31467,50.45603330473194,30.267702963521565,-92.81412241395238,74.72988577,59.32197454,5933.0,42134.0,651.33,0.18854673149648837,48.31191561881074
22055,Lafayette Parish,Louisiana,LA,117169,122922,34.9,240091,51.198087391863915,30.206744647264657,-92.06387514959995,77.48645628,53.65531793,42781.0,51125.0,268.72,0.1781866042458901,893.4615957130097
22057,Lafourche Parish,Louisiana,LA,48261,49953,37.5,98214,50.86138432402713,29.56623878542536,-90.42577006003224,76.8928287,54.00737292,16447.0,52220.0,1068.21,0.16746085079520232,91.94259555705338
22059,LaSalle Parish,Louisiana,LA,7730,7219,38.0,14949,48.29085557562379,31.67670103818386,-92.16040874819427,74.77309832,61.12419891,2653.0,45169.0,624.68,0.17747006488728342,23.93065249407697
22061,Lincoln Parish,Louisiana,LA,23041,24315,27.8,47356,51.345130500886896,32.60161626031195,-92.66483582632877,77.42859415,52.64148008,12959.0,39158.0,471.74,0.27365064616943996,100.38580574045025
22063,Livingston Parish,Louisiana,LA,67836,70275,36.3,138111,50.882985424767035,30.44014952282762,-90.72789747675579,75.61431487,58.60530273,17396.0,58318.0,648.17,0.12595665805040873,213.07835907246556
22065,Madison Parish,Louisiana,LA,5708,5764,35.1,11472,50.24407252440725,32.36440307134817,-91.24262373016052,71.56934901,65.9886391,4103.0,27306.0,624.44,0.3576534170153417,18.371661008263402
22067,Morehouse Parish,Louisiana,LA,12444,13548,39.6,25992,52.123730378578024,32.820215935135195,-91.8017876305692,72.79559845,63.93610313,7237.0,32269.0,794.93,0.2784318251769775,32.69721862302341
22069,Natchitoches Parish,Louisiana,LA,18622,20341,33.7,38963,52.20593896773862,31.723537805497013,-93.09622461332172,75.60893599,55.57201831,11773.0,32094.0,1252.25,0.30215845802427943,31.114394090636853
22071,Orleans Parish,Louisiana,LA,185377,204271,36.3,389648,52.424495955323785,30.06868620057436,-89.92883166748327,75.79711141,50.36739066,91421.0,38418.0,169.42,0.2346245842401347,2299.8937551646795
22073,Ouachita Parish,Louisiana,LA,74853,81222,35.4,156075,52.04036520903412,32.47832375111299,-92.15486594315172,75.46245701,58.44841286,37014.0,38525.0,610.41,0.23715521383950025,255.6887993315968
22075,Plaquemines Parish,Louisiana,LA,11617,11756,36.2,23373,50.29735164506054,29.440526397785177,-89.60968111554193,76.83720129,53.90443071,3575.0,55950.0,779.91,0.15295426346639285,29.96884255875678
22077,Pointe Coupee Parish,Louisiana,LA,10614,11544,42.9,22158,52.09856485242349,30.709381403559647,-91.60078731441892,75.80769708,55.23058171,4332.0,42545.0,557.35,0.19550500947738966,39.755988158248854
22079,Rapides Parish,Louisiana,LA,63681,67865,37.3,131546,51.59031821568121,31.198629979290303,-92.53318687121849,75.21938383,58.20327512,25575.0,42452.0,1317.96,0.1944186824380825,99.81031290782724
22081,Red River Parish,Louisiana,LA,4067,4551,38.7,8618,52.80807611974936,32.093132954929665,-93.33986542407423,73.98526107,60.05875677,2194.0,33044.0,389.09,0.2545834300301694,22.14911717083451
22083,Richland Parish,Louisiana,LA,9952,10522,38.5,20474,51.392009377747385,32.41780311074509,-91.76347507020307,74.33803,59.81584676,5299.0,33820.0,559.04,0.2588160593924001,36.6234974241557
22085,Sabine Parish,Louisiana,LA,11929,12159,40.9,24088,50.477416140817006,31.56400056386607,-93.55459812197542,75.39914997,55.40522222,4352.0,42700.0,866.66,0.18067087346396546,27.794059954307343
22087,St. Bernard Parish,Louisiana,LA,22402,23292,33.7,45694,50.973869654659254,29.8692554294092,-89.55515320212244,74.30997418,63.13941937,10604.0,39450.0,377.52,0.23206547905633124,121.03729603729604
22089,St. Charles Parish,Louisiana,LA,26121,26603,37.6,52724,50.45709733707609,29.90547792260613,-90.35819453782207,76.81631589,55.49601665,6812.0,64742.0,279.08,0.12920112282831347,188.92073957288233
22091,St. Helena Parish,Louisiana,LA,5039,5372,38.9,10411,51.599270002881575,30.821990180022983,-90.71034058499495,74.72841041,57.45677245,2558.0,35519.0,408.4,0.24570166170396696,25.492164544564154
